[{"id":null,"name":"JPPSO NORTH CENTRAL","street_address":"JPPSO-NC","extended_address":"121 S. TEJON ST., SUITE 800","locality":"COLORADO SPRINGS","region":null,"region_code":"CO","postal_code":"80903","country_name":null,"country_code":"US","latitude":38.8413423,"longitude":-104.8162784,"email_addresses":[{"email_address":"jppso-nc.documentation.wts@us.af.mil","note":"Email"},{"email_address":"jppso-nc.movementsupport@us.af.mil","note":"Inbound"},{"email_address":"jppso-nc.storagemanagement@us.af.mil","note":"NTS"},{"email_address":"jppso-nc.shipmentdistribution@us.af.mil","note":"Outbound"},{"email_address":"jppso-nc.qa@us.af.mil","note":"QA"}],"phone_numbers":[{"phone_number":"8007711819","phone_type":"voice","dsn":false,"note":"Main Number-Business Hours"},{"phone_number":"7195547884","phone_type":"fax","dsn":false,"note":"Inbound Customer Contact"},{"phone_number":"6927884","phone_type":"fax","dsn":true,"note":"Inbound Customer Contact"},{"phone_number":"7195547861","phone_type":"voice","dsn":false,"note":"OTO Rates"},{"phone_number":"6927861","phone_type":"voice","dsn":true,"note":"OTO Rates"},{"phone_number":"7195549291","phone_type":"voice","dsn":false,"note":"Customer Support"},{"phone_number":"6929291","phone_type":"voice","dsn":true,"note":"Customer Service"},{"phone_number":"7195547887","phone_type":"fax","dsn":false,"note":"NTS Extensions/NTS Handle Out"},{"phone_number":"7195549292","phone_type":"voice","dsn":false,"note":"NTS Extensions / NTS Handle Out"},{"phone_number":"6927887","phone_type":"fax","dsn":true,"note":"NTS Extensions"},{"phone_number":"6929292","phone_type":"voice","dsn":true,"note":"NTS Extensions/NTS Handle Out"},{"phone_number":"7195549287","phone_type":"fax","dsn":false,"note":"Shipment Distribution, NTS HANDLE-IN, Shipment Booking"},{"phone_number":"7195549295","phone_type":"voice","dsn":false,"note":"Shipment Distribution, NTS HANDLE-IN, Shipment Booking"},{"phone_number":"6929287","phone_type":"fax","dsn":true,"note":"Shipment Distribution, NTS HANDLE-IN, Shipment Booking"},{"phone_number":"6929295","phone_type":"voice","dsn":true,"note":"Shipment Distribution, NTS HANDLE-IN, Shipment Booking"},{"phone_number":"7195549254","phone_type":"fax","dsn":false,"note":"Quality Assurance"},{"phone_number":"7195549293","phone_type":"voice","dsn":false,"note":"Quality Assurance"},{"phone_number":"6929254","phone_type":"fax","dsn":true,"note":"Quality Assurance"},{"phone_number":"6929293","phone_type":"voice","dsn":true,"note":"Quality Assurance"},{"phone_number":"7195547887","phone_type":"fax","dsn":false,"note":"SIT Extensions"},{"phone_number":"7195549291","phone_type":"voice","dsn":false,"note":"SIT Extensions"},{"phone_number":"6927887","phone_type":"fax","dsn":true,"note":"SIT Extensions"},{"phone_number":"6929291","phone_type":"voice","dsn":true,"note":"SIT Extensions"},{"phone_number":"7195549295","phone_type":"voice","dsn":false,"note":"Canada Shipments, Technical Assistance"},{"phone_number":"6929295","phone_type":"voice","dsn":true,"note":"Canada Shipments, Technical Assistance"}],"urls":[],"services":[]},{"id":null,"name":"PPSO NAVSUP FLCSI ROTA","street_address":"PSC 819 BOX 8, CODE N46RT","extended_address":null,"locality":"ROTA","region":null,"region_code":null,"postal_code":"09645","country_name":null,"country_code":"ES","latitude":36.6236874,"longitude":-6.3601441,"email_addresses":[{"email_address":"ppso-rota@eu.navy.mil","note":"Customer Service"},{"email_address":"ppso-rota@eu.navy.mil","note":"Email"},{"email_address":"ppso-rota@eu.navy.mil","note":"Shipment Support"},{"email_address":"ppso-rota@eu.navy.mil","note":"TMO"}],"phone_numbers":[{"phone_number":"956821621","phone_type":"fax","dsn":false},{"phone_number":"956822419","phone_type":"voice","dsn":false,"note":"INBOUND"},{"phone_number":"7271621","phone_type":"fax","dsn":true},{"phone_number":"7272419","phone_type":"voice","dsn":true,"note":"INBOUND"},{"phone_number":"956821624","phone_type":"voice","dsn":false},{"phone_number":"7271624","phone_type":"voice","dsn":true},{"phone_number":"956821625","phone_type":"voice","dsn":false},{"phone_number":"7271625","phone_type":"voice","dsn":true},{"phone_number":"956821623","phone_type":"voice","dsn":false},{"phone_number":"7271623","phone_type":"voice","dsn":true},{"phone_number":"956821672","phone_type":"voice","dsn":false,"note":"Supv.  1627"},{"phone_number":"7271672","phone_type":"voice","dsn":true,"note":"Supv. 1627"}],"urls":[],"services":[]},{"id":null,"name":"JPPSO NORTHEAST DETACHMENT 2","street_address":"JPPSO NORTHEAST, DETACHMENT 2","extended_address":"25 CHENNAULT STREET BUILDING 1723","locality":"HANSCOM AFB","region":null,"region_code":"MA","postal_code":"01731","country_name":null,"country_code":"US","latitude":42.4585844,"longitude":-71.2785119,"email_addresses":[{"email_address":"jppsone.cs@us.af.mil","note":"Customer Service"},{"email_address":"jppso.inb@us.af.mil","note":"Inbound"},{"email_address":"jppsone.stg@us.af.mil","note":"NTS"},{"email_address":"jppso.bk@us.af.mil","note":"Outbound"},{"email_address":"jppso.qa@us.af.mil","note":"QA"},{"email_address":"jppso.tracing@us.af.mil","note":"Tracing"}],"phone_numbers":[{"phone_number":"8002357776","phone_type":"voice","dsn":false},{"phone_number":"7812253700","phone_type":"voice","dsn":false},{"phone_number":"7812253719","phone_type":"fax","dsn":false},{"phone_number":"8453700","phone_type":"voice","dsn":true},{"phone_number":"8453719","phone_type":"fax","dsn":true},{"phone_number":"7812253740","phone_type":"voice","dsn":false,"note":"NTS handle in/out see note 15b"},{"phone_number":"7812253752","phone_type":"fax","dsn":false,"note":"see note 15b"},{"phone_number":"8453740","phone_type":"voice","dsn":true,"note":"NTS handle in/out see note 15b"},{"phone_number":"8453775","phone_type":"fax","dsn":true,"note":"see note 15b"},{"phone_number":"7812253720","phone_type":"voice","dsn":false,"note":"mail in application see note 15a"},{"phone_number":"7812253735","phone_type":"fax","dsn":false,"note":"mail in applications see note 15a"},{"phone_number":"8453720","phone_type":"voice","dsn":true,"note":"mail in applicatons see note 15a"},{"phone_number":"8453735","phone_type":"fax","dsn":true,"note":"mail in applications see note 15a"},{"phone_number":"7812253770","phone_type":"voice","dsn":false},{"phone_number":"8453770","phone_type":"voice","dsn":true},{"phone_number":"8453777","phone_type":"fax","dsn":true},{"phone_number":"7812253777","phone_type":"fax","dsn":false}],"urls":[],"services":[]},{"id":null,"name":"NAVSUP FLCJ GUANTANAMO BAY, CUBA","street_address":"PERSONAL PROPERTY OFFICE","extended_address":"PSC 1005 BOX 33 FPO AE 09593","locality":"GUANTANAMO","region":null,"region_code":null,"postal_code":"09593","country_name":null,"country_code":"CU","latitude":32.736511,"longitude":-117.19693,"email_addresses":[{"email_address":"ppsogtmo@usnbgtmo.navy.mil","note":"Shipment Support"}],"phone_numbers":[{"phone_number":"1153994562","phone_type":"fax","dsn":false},{"phone_number":"1153994495","phone_type":"voice","dsn":false},{"phone_number":"6604495","phone_type":"voice","dsn":true},{"phone_number":"1153994735","phone_type":"voice","dsn":false},{"phone_number":"6604562","phone_type":"fax","dsn":true},{"phone_number":"6604735","phone_type":"voice","dsn":true}],"urls":[],"services":[]},{"id":null,"name":"AMER EMB, COPENHAGEN, DENMARK","street_address":"EMBASSY COPENHAGEN PSC 73 APO AE  09716","extended_address":"EMBASSY COPENHAGEN DEPT OF STATE POUCH","locality":"WASHINGTON","region":null,"region_code":"DC","postal_code":"20521","country_name":null,"country_code":"US","latitude":38.9452881,"longitude":-77.0264652,"email_addresses":[],"phone_numbers":[],"urls":[],"services":[]},{"id":null,"name":"USDAO, PRAGUE, CZECH REPUBLIC","street_address":"DEFENSE ATTACHE OFFICE","extended_address":"EMBASSY PRAGUE DEPT OF STATE POUCH","locality":"WASHINGTON","region":null,"region_code":"DC","postal_code":"20521","country_name":null,"country_code":"US","latitude":38.9393323,"longitude":-77.0541159,"email_addresses":[],"phone_numbers":[],"urls":[],"services":[]},{"id":null,"name":"AMER CONS ST. PETERSBURG, RUSSIA","street_address":"191028 US CONSULATE GENERAL","extended_address":"#15 FURSHTADSKAYA STR.  ATTN: GSO/SHIPPING","locality":null,"region":null,"region_code":null,"postal_code":"09723","country_name":null,"country_code":"RU","latitude":41.8828788,"longitude":-87.629182,"email_addresses":[],"phone_numbers":[{"phone_number":"781-2331-2828","phone_type":"voice","dsn":false}],"urls":[],"services":[]},{"id":null,"name":"USDAO, COLOMBO, SRI LANKA","street_address":"USDAO COLOMBO SRI LANKA","extended_address":"6100 COLOMBO PL","locality":"DULLES","region":null,"region_code":"VA","postal_code":"20189","country_name":null,"country_code":"US","latitude":38.9,"longitude":-77.04,"email_addresses":[],"phone_numbers":[{"phone_number":"11-249-8753","phone_type":"fax","dsn":false}],"urls":[],"services":[]},{"id":null,"name":"MCB CAMP PENDLETON","street_address":"P.O. BOX 555004 BLDG 2263","extended_address":null,"locality":"CAMP PENDLETON","region":null,"region_code":"CA","postal_code":"92055","country_name":null,"country_code":"US","latitude":33.2295467,"longitude":-117.3811366,"email_addresses":[{"email_address":"mcb.campen.tmo@usmc.mil","note":"Email"},{"email_address":"mcb.campen.tmo@usmc.mil","note":"Inbound"},{"email_address":"mcb_campen_tmo_nts@usmc.mil","note":"NTS"},{"email_address":"mcb.campen.tmo@usmc.mil","note":"Outbound"},{"email_address":"mcb.campen.tmo@usmc.mil","note":"QA"},{"email_address":"mcb.campen.tmo@usmc.mil","note":"Shipment Support"}],"phone_numbers":[{"phone_number":"7607258666","phone_type":"voice","dsn":false},{"phone_number":"3658666","phone_type":"voice","dsn":true},{"phone_number":"7607253386","phone_type":"fax","dsn":false},{"phone_number":"7607254486","phone_type":"voice","dsn":false},{"phone_number":"3653386","phone_type":"fax","dsn":true},{"phone_number":"3654486","phone_type":"voice","dsn":true},{"phone_number":"7607258668","phone_type":"voice","dsn":false},{"phone_number":"3658668","phone_type":"voice","dsn":true},{"phone_number":"7607258175","phone_type":"voice","dsn":false},{"phone_number":"3658175","phone_type":"voice","dsn":true},{"phone_number":"7607258174","phone_type":"voice","dsn":false}],"urls":[],"services":[]},{"id":null,"name":"USMC MCAS YUMA AZ","street_address":"ATTN HOUSEHOLD GOODS","extended_address":"PO BOX 99138","locality":"YUMA","region":null,"region_code":"AZ","postal_code":"85369","country_name":null,"country_code":"US","latitude":32.687169,"longitude":-114.6246981,"email_addresses":[{"email_address":"YUMA_DMO@usmc.mil","note":"Customer Service"}],"phone_numbers":[{"phone_number":"9282692313","phone_type":"voice","dsn":false},{"phone_number":"2692313","phone_type":"voice","dsn":true},{"phone_number":"2696652","phone_type":"voice","dsn":true},{"phone_number":"2694297","phone_type":"voice","dsn":true},{"phone_number":"2692545","phone_type":"voice","dsn":true,"note":"TRAFFIC CHIEF"},{"phone_number":"2693269","phone_type":"voice","dsn":true,"note":"OIC"},{"phone_number":"2693365","phone_type":"voice","dsn":true,"note":"PPTY SUPV"}],"urls":[],"services":[]},{"id":null,"name":"FORT CAMPBELL, KY","street_address":"7162 HEDGEROW ROAD  Room 211","extended_address":null,"locality":"FORT CAMPBELL","region":null,"region_code":"KY","postal_code":"42223","country_name":null,"country_code":"US","latitude":-87.47665,"longitude":36.67019,"email_addresses":[],"phone_numbers":[{"phone_number":"2707982916","phone_type":"fax","dsn":false},{"phone_number":"2707987151","phone_type":"voice","dsn":false,"note":"usarmy.campbell.asc.mbx.dol-inbound-personal-property@mail.mil"},{"phone_number":"6352916","phone_type":"fax","dsn":true,"note":"IB Counselor"},{"phone_number":"6357151","phone_type":"voice","dsn":true,"note":"IB Counselor"},{"phone_number":"2707987151","phone_type":"voice","dsn":false},{"phone_number":"2707987522","phone_type":"fax","dsn":false},{"phone_number":"6357151","phone_type":"voice","dsn":true},{"phone_number":"6357522","phone_type":"fax","dsn":true},{"phone_number":"2707987151","phone_type":"voice","dsn":false,"note":"usarmy.campbell.asc.mbx.dol-outbound-personal-property@mail.mil"},{"phone_number":"2707987940","phone_type":"fax","dsn":false},{"phone_number":"6357151","phone_type":"voice","dsn":true,"note":"OB Counselor"},{"phone_number":"6357940","phone_type":"fax","dsn":true,"note":"OB Counselor"},{"phone_number":"3525483","phone_type":"voice","dsn":true,"note":"Inspectors"},{"phone_number":"2704125310","phone_type":"voice","dsn":false,"note":"Inspectors"},{"phone_number":"2704125483","phone_type":"voice","dsn":false,"note":"Inspectors"},{"phone_number":"2707984649","phone_type":"voice","dsn":false,"note":"Inspectors"},{"phone_number":"3525310","phone_type":"voice","dsn":true,"note":"Inspectors"},{"phone_number":"6354649","phone_type":"voice","dsn":true,"note":"Inspectors"},{"phone_number":"2707987590","phone_type":"fax","dsn":false},{"phone_number":"6357590","phone_type":"fax","dsn":true},{"phone_number":"2704125487","phone_type":"fax","dsn":false},{"phone_number":"3525487","phone_type":"fax","dsn":true}],"urls":[],"services":[]},{"id":null,"name":"LRC TRANS DIV, FORT KNOX, KY","street_address":"ASCW-LKN-T","extended_address":"25 W CHAFFEE AVE, BLDG 1384 - 2ND FL","locality":"FORT KNOX","region":null,"region_code":"KY","postal_code":"40121","country_name":null,"country_code":"US","latitude":37.919256,"longitude":-85.9406745,"email_addresses":[{"email_address":"usarmy.knox.407-afsb.mbx.lrc-hhg@mail.mil","note":"Customer Service"}],"phone_numbers":[{"phone_number":"5026242037","phone_type":"voice","dsn":false},{"phone_number":"5026243315","phone_type":"fax","dsn":false},{"phone_number":"4643927","phone_type":"voice","dsn":true},{"phone_number":"5026246437","phone_type":"voice","dsn":false},{"phone_number":"5026244702","phone_type":"fax","dsn":false},{"phone_number":"5026244083","phone_type":"voice","dsn":false},{"phone_number":"5026243857","phone_type":"voice","dsn":false},{"phone_number":"5026244192","phone_type":"voice","dsn":false},{"phone_number":"5026245739","phone_type":"voice","dsn":false},{"phone_number":"5026246476","phone_type":"voice","dsn":false},{"phone_number":"5026244040","phone_type":"voice","dsn":false}],"urls":[],"services":[]},{"id":null,"name":"ARMY SUSTAINMENT COMMAND-DTA MI","street_address":"Army Sustainment Command-DTA Mailstop 180","extended_address":"6501 E. 11 MILE RD","locality":"WARREN","region":null,"region_code":"MI","postal_code":"48397","country_name":null,"country_code":"US","latitude":-83.04121,"longitude":42.491673,"email_addresses":[{"email_address":"pleaseseenotesforemailaddress@mil.mil","note":"Shipment Support"}],"phone_numbers":[{"phone_number":"5862820951","phone_type":"voice","dsn":false,"note":"usarmy.detroit.asc.mbx.log-readiness-ctr-personal-property-svcs@mail.mil"},{"phone_number":"5862827764","phone_type":"voice","dsn":false,"note":"usarmy.detroit.asc.mbx.log-readiness-ctr-personal-property-svcs@mail.mil"},{"phone_number":"7867764","phone_type":"voice","dsn":true,"note":"Customer Service"},{"phone_number":"5862829324","phone_type":"voice","dsn":false,"note":"usarmy.detroit.asc.mbx.log-readiness-ctr-personal-property-svcs@mail.mil"},{"phone_number":"7869324","phone_type":"voice","dsn":true},{"phone_number":"7869625","phone_type":"voice","dsn":true,"note":"Inbound"},{"phone_number":"5862829625","phone_type":"voice","dsn":false,"note":"usarmy.detroit.asc.mbx.log-readiness-ctr-personal-property-svcs@mail.mil"},{"phone_number":"5862829626","phone_type":"voice","dsn":false,"note":"usarmy.detroit.asc.mbx.log-readiness-ctr-personal-property-svcs@mail.mil"},{"phone_number":"7869626","phone_type":"voice","dsn":true,"note":"NTS"},{"phone_number":"5862827826","phone_type":"voice","dsn":false,"note":"usarmy.detroit.asc.mbx.log-readiness-ctr-personal-property-svcs@mail.mil"},{"phone_number":"7867826","phone_type":"voice","dsn":true,"note":"counseling"},{"phone_number":"5862825528","phone_type":"voice","dsn":false,"note":"usarmy.detroit.asc.mbx.log-readiness-ctr-personal-property-svcs@mail.mil"},{"phone_number":"7865528","phone_type":"voice","dsn":true,"note":"Claims/Invoicing"},{"phone_number":"5862829438","phone_type":"voice","dsn":false,"note":"usarmy.detroit.asc.mbx.log-readiness-ctr-personal-property-svcs@mail.mil"},{"phone_number":"7869438","phone_type":"voice","dsn":true,"note":"Invoicing"},{"phone_number":"5862829628","phone_type":"fax","dsn":false},{"phone_number":"7869628","phone_type":"fax","dsn":true}],"urls":[],"services":[]},{"id":null,"name":"USA FIELD ARTILLERY \u0026 FT SILL, OK","street_address":"ATTN: ASCW-LSI-T-F","extended_address":"BLDG 4700 MOW WAY RD RM 110","locality":"FORT SILL","region":null,"region_code":"OK","postal_code":"73503","country_name":null,"country_code":"US","latitude":34.6715032,"longitude":-98.4074573,"email_addresses":[{"email_address":"nicole.l.wood6.ctr@mail.mil","note":"Customer Service"},{"email_address":"edna.s.robinson.ctr@mail.mil","note":"Inbound"},{"email_address":"rhonda.g.scammahorn.ctr@mail.mil","note":"NTS"},{"email_address":"maggie.m.mortensen.ctr@mail.mil","note":"NTS"},{"email_address":"linda.f.taff.ctr@mail.mil","note":"Outbound"}],"phone_numbers":[{"phone_number":"5804423107","phone_type":"voice","dsn":false},{"phone_number":"6393107","phone_type":"voice","dsn":true},{"phone_number":"5804425019","phone_type":"fax","dsn":false,"note":"FAX for all sections"},{"phone_number":"6395019","phone_type":"fax","dsn":true,"note":"FAX for all sections"},{"phone_number":"5804423600","phone_type":"voice","dsn":false},{"phone_number":"6393600","phone_type":"voice","dsn":true},{"phone_number":"5804425767","phone_type":"voice","dsn":false},{"phone_number":"6395767","phone_type":"voice","dsn":true},{"phone_number":"5804423151","phone_type":"voice","dsn":false},{"phone_number":"6393151","phone_type":"voice","dsn":true}],"urls":[],"services":[]},{"id":null,"name":"MCALESTER ARMY AMMO PLANT, OK","street_address":"MCALESTER ARMY AMMUNITION PLANT","extended_address":"1 C TREE RD BLDG 31","locality":"MCALESTER","region":null,"region_code":"OK","postal_code":"74501","country_name":null,"country_code":"US","latitude":34.8432962,"longitude":-95.9084376,"email_addresses":[{"email_address":"michael.e.green1.civ@mail.mil","note":"Customer Service"}],"phone_numbers":[{"phone_number":"9184207667","phone_type":"fax","dsn":false},{"phone_number":"9567667","phone_type":"fax","dsn":true},{"phone_number":"9184206507","phone_type":"voice","dsn":false},{"phone_number":"9184206506","phone_type":"voice","dsn":false},{"phone_number":"956-6506","phone_type":"voice","dsn":true}],"urls":[],"services":[]},{"id":null,"name":"NSA PHILADELPHIA, PA","street_address":"CONSOLIDATED PERSONAL PROPERTY OFFICE","extended_address":"7920 14TH STREET, BLDG SDA-336","locality":"NORFOLK","region":null,"region_code":"VA","postal_code":"23505","country_name":null,"country_code":"US","latitude":36.9214232,"longitude":-76.3168089,"email_addresses":[{"email_address":"hhg.fisc_norfolk_d_p@navy.mil","note":"Email"}],"phone_numbers":[{"phone_number":"2156976034","phone_type":"voice","dsn":false},{"phone_number":"2156976154","phone_type":"voice","dsn":false},{"phone_number":"2156972070","phone_type":"voice","dsn":false,"note":"FOR INFO REGARDING INBOUND/OUTBOUND/NTS"},{"phone_number":"2156970896","phone_type":"fax","dsn":false},{"phone_number":"4420896","phone_type":"fax","dsn":true},{"phone_number":"4425656","phone_type":"voice","dsn":true}],"urls":[],"services":[]},{"id":null,"name":"WHITE SANDS MISSILE RANGE, NM","street_address":"ATTN:  IMWE-WSM-LGTP","extended_address":"BLDG 1838  ROOM 13","locality":"WHITE SANDS MISSILE RANGE","region":null,"region_code":"NM","postal_code":"88002","country_name":null,"country_code":"US","latitude":32.4107,"longitude":-106.4641459,"email_addresses":[{"email_address":"WSMR-Transportation@conus.army.mil","note":"Email"}],"phone_numbers":[{"phone_number":"5756783506","phone_type":"voice","dsn":false},{"phone_number":"2583506","phone_type":"voice","dsn":true},{"phone_number":"5756783315","phone_type":"fax","dsn":false},{"phone_number":"2583315","phone_type":"fax","dsn":true},{"phone_number":"5756782555","phone_type":"voice","dsn":false},{"phone_number":"2582555","phone_type":"voice","dsn":true},{"phone_number":"5756785005","phone_type":"voice","dsn":false},{"phone_number":"2585005","phone_type":"voice","dsn":true},{"phone_number":"5756786788","phone_type":"voice","dsn":false},{"phone_number":"2586788","phone_type":"voice","dsn":true}],"urls":[],"services":[]},{"id":null,"name":"USA INTEL CTR \u0026 FORT HUACHUCA, AZ","street_address":"ASPA-LHU-TR","extended_address":"BLDG 22408 CHRISTY AVE","locality":"FORT HUACHUCA","region":null,"region_code":"AZ","postal_code":"85613","country_name":null,"country_code":"US","latitude":31.5552157,"longitude":-110.3499216,"email_addresses":[{"email_address":"Imcomamc.dol-ppso.520533-8511@mail.mil","note":"TMO"},{"email_address":"Imcomamc.dol-ppso.520533-8511@mail.mil","note":"TQAP"}],"phone_numbers":[{"phone_number":"5205332207","phone_type":"voice","dsn":false},{"phone_number":"5205332223","phone_type":"fax","dsn":false},{"phone_number":"8212207","phone_type":"voice","dsn":true},{"phone_number":"8212223","phone_type":"fax","dsn":true},{"phone_number":"5205331316","phone_type":"voice","dsn":false},{"phone_number":"8211316","phone_type":"voice","dsn":true},{"phone_number":"5205333311","phone_type":"voice","dsn":false},{"phone_number":"8213311","phone_type":"voice","dsn":true},{"phone_number":"5205332266","phone_type":"fax","dsn":false},{"phone_number":"5205332798","phone_type":"voice","dsn":false},{"phone_number":"8212266","phone_type":"fax","dsn":true},{"phone_number":"8212798","phone_type":"voice","dsn":true}],"urls":[],"services":[]},{"id":null,"name":"RED RIVER ARMY DEPOT, TX","street_address":"RED RIVER ARMY DEPOT,ATTN:  TARR-O","extended_address":"100 JAMES CARLOW DRIVE, BLDG 431N","locality":"TEXARKANA","region":null,"region_code":"TX","postal_code":"75507","country_name":null,"country_code":"US","latitude":33.4600376,"longitude":-94.3682686,"email_addresses":[{"email_address":"usarmy.rrad.usamc.list.ppso@mail.mil","note":"Customer Service"},{"email_address":"charlotte.k.hawkins.civ@mail.mil","note":"Outbound"},{"email_address":"jana.d.madill.civ@mail.mil","note":"QC/QA"},{"email_address":"charlotte.k.hawkins.civ@mail.mil","note":"TO"}],"phone_numbers":[{"phone_number":"9033342150","phone_type":"voice","dsn":false},{"phone_number":"9033342453","phone_type":"fax","dsn":false},{"phone_number":"8292150","phone_type":"voice","dsn":true},{"phone_number":"8292453","phone_type":"fax","dsn":true},{"phone_number":"903-334-2212","phone_type":"voice","dsn":false},{"phone_number":"8292212","phone_type":"voice","dsn":true},{"phone_number":"903-334-2150","phone_type":"voice","dsn":false}],"urls":[],"services":[]},{"id":null,"name":"BLUE GRASS ARMY DEPOT, KY","street_address":"431 Battlefield Memorial Hwy, Bldg 15","extended_address":null,"locality":"RICHMOND","region":null,"region_code":"KY","postal_code":"40475","country_name":null,"country_code":"US","latitude":37.6788955,"longitude":-84.2551804,"email_addresses":[{"email_address":"yancey.coleman.civ@mail.mil","note":"Email"},{"email_address":"tony.l.smith12.civ@mail.mil","note":"NTS"},{"email_address":"yancey.coleman.civ@mail.mil","note":"Outbound"}],"phone_numbers":[{"phone_number":"8597796820","phone_type":"fax","dsn":false},{"phone_number":"7456821","phone_type":"voice","dsn":true,"note":"Scores"},{"phone_number":"8597796820","phone_type":"voice","dsn":false,"note":"Invoices"},{"phone_number":"7456820","phone_type":"fax","dsn":true},{"phone_number":"7456820","phone_type":"voice","dsn":true,"note":"mail in"},{"phone_number":"859-779-6821","phone_type":"voice","dsn":false},{"phone_number":"7456821","phone_type":"voice","dsn":true},{"phone_number":"8597796821","phone_type":"voice","dsn":false,"note":"LOI'S"},{"phone_number":"7456821","phone_type":"voice","dsn":true,"note":"LOI'S"},{"phone_number":"8597796823","phone_type":"voice","dsn":false},{"phone_number":"7456823","phone_type":"voice","dsn":true},{"phone_number":"859-779-6824","phone_type":"voice","dsn":false,"note":"Inspector"},{"phone_number":"8597796825","phone_type":"voice","dsn":false,"note":"Inspector"},{"phone_number":"7456824","phone_type":"voice","dsn":true,"note":"Inspector"},{"phone_number":"7456825","phone_type":"voice","dsn":true,"note":"Inspector"},{"phone_number":"8597796821","phone_type":"voice","dsn":false,"note":"Scores"}],"urls":[],"services":[]},{"id":null,"name":"JPPSO SOUTHWEST","street_address":"3985 Cummings Rd","extended_address":"Commanding Officer  Code 443","locality":"SAN DIEGO","region":null,"region_code":"CA","postal_code":"92136","country_name":null,"country_code":"US","latitude":32.6805702,"longitude":-117.1210006,"email_addresses":[{"email_address":"jppso_SW_counseling@navy.mil","note":"Customer Service"},{"email_address":"jppso_SW_shipment@navy.mil","note":"Inbound"},{"email_address":"jppso_SW_storage@navy.mil","note":"NTS"},{"email_address":"jppso_SW_Shipment@navy.mil","note":"Outbound"},{"email_address":"jppso_SW_vendor@navy.mil","note":"QC/QA"},{"email_address":"jppso_SW_QA@navy.mil","note":"Shipment Support"}],"phone_numbers":[{"phone_number":"8554446683","phone_type":"voice","dsn":false},{"phone_number":"5266683","phone_type":"voice","dsn":true},{"phone_number":"6195568763","phone_type":"fax","dsn":false,"note":"DPM/Tracing Request:  jppso_sw_shipment@navy.mil"},{"phone_number":"6195566874","phone_type":"fax","dsn":false,"note":"NTS/SIT Extension:  jppso_sw_storage@navy.mil"},{"phone_number":"6195568763","phone_type":"fax","dsn":false,"note":"Mail In Application:  jppso_sw_shipment@navy.mil"},{"phone_number":"6195568775","phone_type":"fax","dsn":false,"note":"Preaaproval/Invoicing:  jppso_sw_vendor@navy.mil"},{"phone_number":"6195568745","phone_type":"fax","dsn":false,"note":"NTS Release: jppso_sw_counseling@navy.mil"}],"urls":[],"services":[]},{"id":null,"name":"TOBYHANNA ARMY DEPOT, PA","street_address":"ATTN AMSEL-TY-EL-S,TOBYHANNA ARMY DEPOT","extended_address":"11 HAP ARNOLD BLVD","locality":"TOBYHANNA","region":null,"region_code":"PA","postal_code":"18466","country_name":null,"country_code":"US","latitude":41.1860113,"longitude":-75.4295174,"email_addresses":[{"email_address":"robert.smerdon@us.army.mil","note":"QC/QA"},{"email_address":"cynthia.m.foster@us.army.mil","note":"TO"}],"phone_numbers":[{"phone_number":"5706156531","phone_type":"fax","dsn":false},{"phone_number":"5706157434","phone_type":"voice","dsn":false},{"phone_number":"795-7434","phone_type":"voice","dsn":true},{"phone_number":"5706157433","phone_type":"voice","dsn":false},{"phone_number":"7956531","phone_type":"fax","dsn":true},{"phone_number":"7957433","phone_type":"voice","dsn":true}],"urls":[],"services":[]},{"id":null,"name":"USCG PPSO MIAMI, FL","street_address":"US COAST GUARD BASE MIAMI BEACH FL","extended_address":"15610 SW 117TH  AVE","locality":"MIAMI","region":null,"region_code":"FL","postal_code":"33177","country_name":null,"country_code":"US","latitude":-80.38212,"longitude":25.623861,"email_addresses":[{"email_address":"D07-SMB-BASEMIAMIBEACH-PPSO@uscg.mil","note":"Customer Service"}],"phone_numbers":[{"phone_number":"3052786800","phone_type":"voice","dsn":false},{"phone_number":"3052786801","phone_type":"fax","dsn":false}],"urls":[],"services":[]},{"id":null,"name":"ARMY PERSONAL PROPERTY - MINNESOTA","street_address":"NORMAN POINTE II SUITE 730","extended_address":"5600 AMERICAN BLVD W","locality":"BLOOMINGTON","region":null,"region_code":"MN","postal_code":"55437","country_name":null,"country_code":"US","latitude":44.825116,"longitude":-93.3439291,"email_addresses":[{"email_address":"USArmy.McCoy.ASC.Mbx.DOL-PPSO-Snelling@mail.mil","note":"Email"}],"phone_numbers":[{"phone_number":"9528373180","phone_type":"voice","dsn":false}],"urls":[],"services":[]},{"id":null,"name":"USCG BASE ALAMEDA, ALAMEDA, CA","street_address":"USCG BASE ALAMEDA","extended_address":"COAST GUARD ISLAND, BLDG 3","locality":"ALAMEDA","region":null,"region_code":"CA","postal_code":"94501","country_name":null,"country_code":"US","latitude":37.7820305,"longitude":-122.2492238,"email_addresses":[{"email_address":"D11-DG-M-BaseAla-PPSO@uscg.mil","note":"Customer Service"}],"phone_numbers":[{"phone_number":"5104373113","phone_type":"voice","dsn":false,"note":"Cust Svc Desk"},{"phone_number":"5104375319","phone_type":"fax","dsn":false,"note":"Email is preferred"},{"phone_number":"5104372913","phone_type":"fax","dsn":false,"note":"Email is preferred"}],"urls":[],"services":[]},{"id":null,"name":"CAMP S.D. BUTLER, OKINAWA, JAPAN","street_address":"ATTN G4","extended_address":"MCB CAMP SD BUTLER UNIT 35018","locality":"GINOWAN","region":null,"region_code":null,"postal_code":"96373","country_name":null,"country_code":"JP","latitude":26.2621597,"longitude":127.7594229,"email_addresses":[{"email_address":"MCBBUTLERPPSODMO@USMC.MIL","note":"Shipment Support"}],"phone_numbers":[{"phone_number":"989700922","phone_type":"voice","dsn":false},{"phone_number":"6450922","phone_type":"voice","dsn":true},{"phone_number":"989707750","phone_type":"fax","dsn":false},{"phone_number":"6457750","phone_type":"fax","dsn":true},{"phone_number":"989700413","phone_type":"voice","dsn":false},{"phone_number":"6450413","phone_type":"voice","dsn":true},{"phone_number":"989709476","phone_type":"voice","dsn":false},{"phone_number":"6459476","phone_type":"voice","dsn":true},{"phone_number":"989709365","phone_type":"voice","dsn":false},{"phone_number":"6459365","phone_type":"voice","dsn":true},{"phone_number":"989700419","phone_type":"voice","dsn":false}],"urls":[],"services":[]},{"id":null,"name":"COMMANDER, FLEET ACTIVITIES SASEBO","street_address":"ATTN CODE 445, PSC 476 BOX 6","extended_address":"FLC YOKOSUKA, SITE SASEBO","locality":"SASEBO","region":null,"region_code":null,"postal_code":"96322","country_name":null,"country_code":"JP","latitude":33.1623284,"longitude":129.7204196,"email_addresses":[{"email_address":"M-SA-FISC-ppty@fe.navy.mil","note":"TO"}],"phone_numbers":[{"phone_number":"956503418","phone_type":"voice","dsn":false,"note":"Into Japan"},{"phone_number":"2523418","phone_type":"voice","dsn":true,"note":"Into Pacific"},{"phone_number":"2523418","phone_type":"voice","dsn":true,"note":"Within Pacific"},{"phone_number":"956503156","phone_type":"voice","dsn":false,"note":"Into Japan"},{"phone_number":"956503159","phone_type":"voice","dsn":false,"note":"Into Japan"},{"phone_number":"252-3159","phone_type":"voice","dsn":true,"note":"within Pacific"},{"phone_number":"2523156","phone_type":"voice","dsn":true,"note":"Into Pacific"},{"phone_number":"2523156","phone_type":"voice","dsn":true,"note":"Within Pacific"},{"phone_number":"2523159","phone_type":"voice","dsn":true,"note":"Into Pacific"},{"phone_number":"956503157","phone_type":"voice","dsn":false,"note":"Into Japan"},{"phone_number":"956503158","phone_type":"voice","dsn":false,"note":"Into Japan"},{"phone_number":"252-3158","phone_type":"voice","dsn":true,"note":"within Pacific"},{"phone_number":"2523157","phone_type":"voice","dsn":true,"note":"Into Pacific"},{"phone_number":"2523157","phone_type":"voice","dsn":true,"note":"Within Pacific"},{"phone_number":"2523158","phone_type":"voice","dsn":true,"note":"Into Pacific"},{"phone_number":"956503154","phone_type":"voice","dsn":false,"note":"Into Japan"},{"phone_number":"956503155","phone_type":"voice","dsn":false,"note":"Into Japan"},{"phone_number":"252-3155","phone_type":"voice","dsn":true,"note":"within Pacific"},{"phone_number":"2523154","phone_type":"voice","dsn":true,"note":"Into Pacific"},{"phone_number":"2523154","phone_type":"voice","dsn":true,"note":"Within Pacific"},{"phone_number":"2523155","phone_type":"voice","dsn":true,"note":"Into Pacific"},{"phone_number":"956503151","phone_type":"voice","dsn":false,"note":"Into Japan"},{"phone_number":"252-3151","phone_type":"voice","dsn":true,"note":"within Pacific"},{"phone_number":"2523151","phone_type":"voice","dsn":true,"note":"Into Pacific"},{"phone_number":"956-50-3704","phone_type":"fax","dsn":false,"note":"into Japan"},{"phone_number":"956503152","phone_type":"voice","dsn":false,"note":"Into Japan"},{"phone_number":"2523152","phone_type":"voice","dsn":true,"note":"Into Pacific"},{"phone_number":"2523152","phone_type":"voice","dsn":true,"note":"Within Pacific"},{"phone_number":"2523704","phone_type":"fax","dsn":true,"note":"Into Pacific"},{"phone_number":"2523704","phone_type":"fax","dsn":true,"note":"Within Pacific"}],"urls":[],"services":[]},{"id":null,"name":"STRIKFORNATO, LISBON, PORTUGAL","street_address":"US NATIONAL SUPPORT ELEMENT","extended_address":"STRIKFORNATO, LISBON PSC 807 BOX 82","locality":"LISBON","region":null,"region_code":null,"postal_code":"09729","country_name":null,"country_code":"PT","latitude":34.4020302,"longitude":-81.9712185,"email_addresses":[{"email_address":"lisbontransoffice@eu.navy.mil","note":"Customer Service"}],"phone_numbers":[{"phone_number":"0021440","phone_type":"voice","dsn":false},{"phone_number":"0021440","phone_type":"fax","dsn":false,"note":"4407"}],"urls":[],"services":[]},{"id":null,"name":"NAS, SIGONELLA, SICILY, ITALY","street_address":"PSC 812 BOX 19","extended_address":null,"locality":"CATANIA","region":null,"region_code":null,"postal_code":"09627","country_name":null,"country_code":"IT","latitude":31.6541507,"longitude":-106.4627724,"email_addresses":[{"email_address":"ppso-sigonella@eu.navy.mil","note":"Customer Service"}],"phone_numbers":[{"phone_number":"39095862447","phone_type":"fax","dsn":false},{"phone_number":"39095869440","phone_type":"voice","dsn":false},{"phone_number":"6242447","phone_type":"fax","dsn":true},{"phone_number":"6249440","phone_type":"voice","dsn":true},{"phone_number":"39095869270","phone_type":"voice","dsn":false},{"phone_number":"39095869441","phone_type":"voice","dsn":false},{"phone_number":"6249270","phone_type":"voice","dsn":true},{"phone_number":"6249441","phone_type":"voice","dsn":true},{"phone_number":"39095869692","phone_type":"voice","dsn":false},{"phone_number":"6249692","phone_type":"voice","dsn":true}],"urls":[],"services":[]},{"id":null,"name":"MAGTF TRNGCOM, TWENTYNINE PALMS, CA","street_address":"DISTRIBUTION MANAGEMENT OFFICE","extended_address":"MCAGCC PO BOX 788151","locality":"TWENTYNINE PALMS","region":null,"region_code":"CA","postal_code":"92278","country_name":null,"country_code":"US","latitude":34.2327172,"longitude":-116.0560817,"email_addresses":[{"email_address":"SMBPLMSTMOHHG@USMC.MIL","note":"TMO"}],"phone_numbers":[{"phone_number":"7608306119","phone_type":"voice","dsn":false},{"phone_number":"7608306628","phone_type":"fax","dsn":false},{"phone_number":"2306119","phone_type":"voice","dsn":true},{"phone_number":"7608306771","phone_type":"fax","dsn":false},{"phone_number":"2306628","phone_type":"fax","dsn":true},{"phone_number":"2306771","phone_type":"fax","dsn":true}],"urls":[],"services":[]},{"id":null,"name":"FORT WAINWRIGHT, AK","street_address":"DIR OF LOGISTICS IMPC-FWA-LT","extended_address":"1060 GAFFNEY BLVD # 7000","locality":"FORT WAINWRIGHT","region":null,"region_code":"AK","postal_code":"99703","country_name":null,"country_code":"US","latitude":-147.59894,"longitude":64.841736,"email_addresses":[],"phone_numbers":[],"urls":[],"services":[]},{"id":null,"name":"CG BASE KODIAK, AK","street_address":"CG BASE KODIAK","extended_address":"BOX 195019","locality":"KODIAK","region":null,"region_code":"AK","postal_code":"99619","country_name":null,"country_code":"US","latitude":57.42,"longitude":-153.53,"email_addresses":[{"email_address":"D17-PF-KodiakTransportation@uscg.mil","note":"Email"}],"phone_numbers":[{"phone_number":"9074875170","phone_type":"voice","dsn":false},{"phone_number":"9074875069","phone_type":"fax","dsn":false}],"urls":[],"services":[]},{"id":null,"name":"MISAWA AB, JAPAN","street_address":"35 LRS/LGRDF","extended_address":"UNIT 5014 BOX 29","locality":"MISAWA","region":null,"region_code":null,"postal_code":"96319","country_name":null,"country_code":"JP","latitude":40.704262,"longitude":141.369581,"email_addresses":[{"email_address":"35lrs.lgrdf.personalproperty@us.af.mil","note":"Customer Service"}],"phone_numbers":[{"phone_number":"176773525","phone_type":"voice","dsn":false},{"phone_number":"2263525","phone_type":"voice","dsn":true},{"phone_number":"176772077","phone_type":"fax","dsn":false},{"phone_number":"2262077","phone_type":"fax","dsn":true},{"phone_number":"176779359","phone_type":"voice","dsn":false},{"phone_number":"2269359","phone_type":"voice","dsn":true},{"phone_number":"176773105","phone_type":"voice","dsn":false},{"phone_number":"2263105","phone_type":"voice","dsn":true},{"phone_number":"176773310","phone_type":"voice","dsn":false},{"phone_number":"2263310","phone_type":"voice","dsn":true},{"phone_number":"176779737","phone_type":"voice","dsn":false},{"phone_number":"2269737","phone_type":"voice","dsn":true}],"urls":[],"services":[]},{"id":null,"name":"FORT BRAGG, NC","street_address":"ASCE-LBTP","extended_address":"2175 REILLY ROAD, STOP A","locality":"FORT BRAGG","region":null,"region_code":"NC","postal_code":"28310","country_name":null,"country_code":"US","latitude":35.1236025,"longitude":-78.9910352,"email_addresses":[{"email_address":"usarmy.bragg.406-afsb.list.lrc-qc@mail.mil","note":"QC/QA"},{"email_address":"usarmy.bragg.406-afsb.list.lrc-ppso@mail.mil","note":"TMO"}],"phone_numbers":[{"phone_number":"9103962172","phone_type":"fax","dsn":false,"note":"rv 12 May 10"},{"phone_number":"9103962903","phone_type":"voice","dsn":false,"note":"ev 12 May 10"},{"phone_number":"9103967429","phone_type":"voice","dsn":false,"note":"ev 12 May 10"},{"phone_number":"2362172","phone_type":"fax","dsn":true,"note":"rv 12 May 10"},{"phone_number":"2362903","phone_type":"voice","dsn":true,"note":"rv 1 Dec 10"},{"phone_number":"9103962173","phone_type":"fax","dsn":false,"note":"rv 23 Dec 10"},{"phone_number":"9103964360","phone_type":"voice","dsn":false,"note":"rv 23 Dec 10"},{"phone_number":"2362173","phone_type":"fax","dsn":true,"note":"rv 23 Dec 10"},{"phone_number":"2364360","phone_type":"voice","dsn":true,"note":"rv 23 Dec 10"},{"phone_number":"9103964404","phone_type":"fax","dsn":false,"note":"rv 12 May 10"},{"phone_number":"9103965212","phone_type":"voice","dsn":false,"note":"ev 12 May 10"},{"phone_number":"9103966261","phone_type":"voice","dsn":false,"note":"ev 12 May 10"},{"phone_number":"2364404","phone_type":"fax","dsn":true,"note":"rv 12 May 10"},{"phone_number":"2365212","phone_type":"voice","dsn":true,"note":"ev 12 May 10"},{"phone_number":"9103964911","phone_type":"voice","dsn":false,"note":"ev 12 May 10"},{"phone_number":"9103969605","phone_type":"voice","dsn":false,"note":"ev 12 May 10"},{"phone_number":"9109073148","phone_type":"fax","dsn":false,"note":"rv 12 May 10"},{"phone_number":"2363148","phone_type":"fax","dsn":true,"note":"rv 12 May 10"},{"phone_number":"2364911","phone_type":"voice","dsn":true,"note":"ev 12 May 10"},{"phone_number":"2369605","phone_type":"voice","dsn":true,"note":"ev 12 May 10"}],"urls":[],"services":[]},{"id":null,"name":"EURO THEATER CPPSO","street_address":"Unit 23152","extended_address":"ATTN: TRANSPORTATION DIVISION","locality":"KAISERSLAUTERN","region":null,"region_code":null,"postal_code":"09054","country_name":null,"country_code":"DE","latitude":49.44754,"longitude":7.76794,"email_addresses":[{"email_address":"usarmy.rheinland-pfalz.405-afsb.mbx.basops-inbound@mail.mil","note":"Inbound"},{"email_address":"usarmy.rheinland-pfalz.405-afsb.mbx.basops-t-itgbl@mail.mil","note":"Outbound"},{"email_address":"usarmy.rheinland-pfalz.405-afsb.mbx.basops-t-qc@mail.mil","note":"QC/QA"}],"phone_numbers":[{"phone_number":"6314118142","phone_type":"voice","dsn":false},{"phone_number":"4838142","phone_type":"voice","dsn":true},{"phone_number":"6314118197","phone_type":"voice","dsn":false},{"phone_number":"4838197","phone_type":"voice","dsn":true},{"phone_number":"6314116484","phone_type":"voice","dsn":false},{"phone_number":"4836484","phone_type":"voice","dsn":true}],"urls":[],"services":[]},{"id":null,"name":"NAS, PATUXENT RIVER, MD","street_address":"SUPPLY DEPT CODE 415.45","extended_address":"47253 WHALEN RD, BLDG 588 ROOM 109","locality":"PATUXENT RIVER","region":null,"region_code":"MD","postal_code":"20670","country_name":null,"country_code":"US","latitude":-76.44229,"longitude":38.289547,"email_addresses":[],"phone_numbers":[],"urls":[],"services":[]},{"id":null,"name":"U.S. ARMY KWAJALEIN ATOLL, RM","street_address":"US ARMY KWAJALEIN ATOLL PO BOX 26","extended_address":"SMDC-KD-TE-K-CL","locality":"MAJURO","region":null,"region_code":null,"postal_code":"96555","country_name":null,"country_code":"MH","latitude":30.3139525,"longitude":-81.5191183,"email_addresses":[{"email_address":"james.m.corder5.ctr@mail.mil","note":"Customer Service"},{"email_address":"diane.m.elliott10.ctr@mail.mil","note":"Customer Service"},{"email_address":"joshua.m.martens.ctr@mail.mil","note":"Customer Service"},{"email_address":"usarmy.bucholz.311-sig-cmd.list.shipping-receiving@mail.mil","note":"Customer Service"},{"email_address":"devi.williams.ctr@mail.mil","note":"Customer Service"},{"email_address":"donna.f.groth.ctr@mail.mil","note":"DPM/OTO"}],"phone_numbers":[{"phone_number":"8053552180","phone_type":"voice","dsn":false},{"phone_number":"2542180","phone_type":"voice","dsn":true}],"urls":[],"services":[]},{"id":null,"name":"USMA, WEST POINT, NY","street_address":"626 SWIFT ROAD","extended_address":"US MILITARY ACADEMY","locality":"WEST POINT","region":null,"region_code":"NY","postal_code":"10996","country_name":null,"country_code":"US","latitude":-73.9615,"longitude":41.379932,"email_addresses":[{"email_address":"patricia.l.sullivan2.civ@mail.mil","note":"Inbound"},{"email_address":"joseph.egan@usma.army.mil","note":"Outbound"},{"email_address":"herman.burdette@us.army.mil","note":"QA"},{"email_address":"donna.pletcher-pruiss.civ@mail.mil","note":"TMO"}],"phone_numbers":[{"phone_number":"8459382483","phone_type":"fax","dsn":false},{"phone_number":"6882483","phone_type":"fax","dsn":true},{"phone_number":"8459382416","phone_type":"voice","dsn":false,"note":"Patti S."},{"phone_number":"6882416","phone_type":"voice","dsn":true,"note":"Patti"},{"phone_number":"8459385311","phone_type":"voice","dsn":false,"note":"Debbie M."},{"phone_number":"6885311","phone_type":"voice","dsn":true,"note":"Debbie"},{"phone_number":"8459385311","phone_type":"voice","dsn":false,"note":"Joe E"},{"phone_number":"6885911","phone_type":"voice","dsn":true,"note":"Joe E"},{"phone_number":"8459387008","phone_type":"voice","dsn":false,"note":"Herman B."},{"phone_number":"6887008","phone_type":"voice","dsn":true,"note":"Herman"},{"phone_number":"8459384449","phone_type":"voice","dsn":false,"note":"Donna P."},{"phone_number":"6884449","phone_type":"voice","dsn":true,"note":"Donna"}],"urls":[],"services":[]},{"id":null,"name":"FLEET LOGISTIC CENTER PEARL HARBOR","street_address":"JPPSO-HAWAII CODE 800","extended_address":"4825 BOUGAINVILLE DRIVE","locality":"HONOLULU","region":null,"region_code":"HI","postal_code":"96818","country_name":null,"country_code":"US","latitude":-157.93272,"longitude":21.348652,"email_addresses":[{"email_address":"jppso_PH_shipment@navy.mil","note":"Inbound"},{"email_address":"jppso_PH_storage@navy.mil","note":"NTS"},{"email_address":"jppso_PH_shipment@navy.mil","note":"Outbound"},{"email_address":"jppso_PH_QA@navy.mil","note":"QA"},{"email_address":"jppso_PH_vendor@navy.mil","note":"QC/QA"},{"email_address":"jppso_PH_counseling@navy.mil","note":"SmartWebMove Email"}],"phone_numbers":[{"phone_number":"8084744597","phone_type":"fax","dsn":false,"note":"Administration"},{"phone_number":"4744597","phone_type":"fax","dsn":true,"note":"Administration"},{"phone_number":"8084737764","phone_type":"fax","dsn":false,"note":"Quality Assurance (Inspections, Reweighs)"},{"phone_number":"8084737775","phone_type":"voice","dsn":false,"note":"Quality Assurance"},{"phone_number":"4737764","phone_type":"fax","dsn":true,"note":"Quality Assurance (Inspections, Reweighs)"},{"phone_number":"4737775","phone_type":"voice","dsn":true,"note":"Quality Assurance"},{"phone_number":"8084737760","phone_type":"voice","dsn":false,"note":"Storage (SIT, NTS) and Invoicing"},{"phone_number":"8084737764","phone_type":"fax","dsn":false,"note":"Invoicing and Storage (SIT, NTS)"},{"phone_number":"4737760","phone_type":"voice","dsn":true,"note":"Storage (SIT, NTS) and Invoicing"},{"phone_number":"4737764","phone_type":"fax","dsn":true,"note":"Invoicing and Storage (SIT, NTS)"},{"phone_number":"8084737750","phone_type":"voice","dsn":false,"note":"Inbound/Outbound"},{"phone_number":"8084737764","phone_type":"fax","dsn":false,"note":"Inbound and Outbound"},{"phone_number":"4737750","phone_type":"voice","dsn":true,"note":"Inbound/Outbound"},{"phone_number":"4737764","phone_type":"fax","dsn":true,"note":"Inbound/Outbound"},{"phone_number":"8084737782","phone_type":"voice","dsn":false,"note":"Navy Personal Property Entitlements/Counseling Office"},{"phone_number":"4737782","phone_type":"voice","dsn":true,"note":"Navy Personal Property Entitlements/Counseling Office"}],"urls":[],"services":[]},{"id":null,"name":"JPPSO NORTHWEST","street_address":"JPPSO NORTHWEST","extended_address":null,"locality":"JOINT BASE LEWIS MCCHORD","region":null,"region_code":"WA","postal_code":"98433","country_name":null,"country_code":"US","latitude":47.1087359,"longitude":-122.5839414,"email_addresses":[{"email_address":"usarmy.jblm.usamc.mbx.jppsonw-cs@mail.mil","note":"Customer Service"},{"email_address":"usarmy.jblm.usamc.mbx.jppsonw-qa@mail.mil","note":"QA"},{"email_address":"usarmy.jblm.usamc.mbx.jppsonw-sd@mail.mil","note":"Shipment Support"}],"phone_numbers":[{"phone_number":"8005219959","phone_type":"voice","dsn":false},{"phone_number":"2539675093","phone_type":"voice","dsn":false},{"phone_number":"2539679475","phone_type":"fax","dsn":false},{"phone_number":"3575093","phone_type":"voice","dsn":true},{"phone_number":"3579475","phone_type":"fax","dsn":true},{"phone_number":"2534774557","phone_type":"fax","dsn":false},{"phone_number":"4774557","phone_type":"fax","dsn":true},{"phone_number":"2534774557","phone_type":"fax","dsn":false,"note":"\"FAX FOR ALL MAIL IN APPLICATIONS\""},{"phone_number":"4774557","phone_type":"fax","dsn":true,"note":"\"FAX FOR ALL MAIL IN APPLICATIONS\""},{"phone_number":"3579288","phone_type":"fax","dsn":true}],"urls":[],"services":[]},{"id":null,"name":"CAMP ZAMA, JAPAN","street_address":"403D AFSB LRC-H   BLDG 102, RM E100","extended_address":"UNIT 45006 ATTN ASKO-LCZ-TRZ","locality":"ZAMA","region":null,"region_code":null,"postal_code":"96343","country_name":null,"country_code":"JP","latitude":39.9508966,"longitude":-75.1723929,"email_addresses":[{"email_address":"EMAIL@BOTTOM.OF.PAGE.GOV","note":"Email"}],"phone_numbers":[{"phone_number":"46-407-4766","phone_type":"voice","dsn":false},{"phone_number":"46-407-8986","phone_type":"voice","dsn":false},{"phone_number":"46-407-3101","phone_type":"voice","dsn":false},{"phone_number":"46-407-4955","phone_type":"voice","dsn":false},{"phone_number":"464078984","phone_type":"fax","dsn":false},{"phone_number":"2633709","phone_type":"voice","dsn":true},{"phone_number":"2638984","phone_type":"fax","dsn":true},{"phone_number":"46-407-8980","phone_type":"voice","dsn":false}],"urls":[],"services":[]},{"id":null,"name":"86 LRS, CPPSO-KAISERSLAUTERN, GER.","street_address":"CPPSO KAISERSLAUTERN","extended_address":"86 LRS/LGRDB, UNIT 3122","locality":"RAMSTEIN","region":null,"region_code":null,"postal_code":"09094","country_name":null,"country_code":"DE","latitude":49.4400412,"longitude":7.597129,"email_addresses":[{"email_address":"86lrs.lgrdppo@us.af.mil","note":"Customer Service"},{"email_address":"86LRS.LGRDBCPPSOInbound@us.af.mil","note":"Inbound"},{"email_address":"86lrs.lgrdbcppsooutbound@us.af.mil","note":"Outbound"},{"email_address":"86lrs.cppsoqa@us.af.mil","note":"QC/QA"}],"phone_numbers":[{"phone_number":"6371473120","phone_type":"fax","dsn":false},{"phone_number":"4803120","phone_type":"fax","dsn":true},{"phone_number":"6315367727","phone_type":"voice","dsn":false},{"phone_number":"6315367728","phone_type":"voice","dsn":false},{"phone_number":"4897727","phone_type":"voice","dsn":true},{"phone_number":"6315366273","phone_type":"voice","dsn":false},{"phone_number":"6315366633","phone_type":"voice","dsn":false},{"phone_number":"4896633","phone_type":"voice","dsn":true},{"phone_number":"6315366036","phone_type":"voice","dsn":false},{"phone_number":"4896036","phone_type":"voice","dsn":true}],"urls":[],"services":[]},{"id":null,"name":"US EMBASSY DOHA, QATAR","street_address":"US EMBASSY,  DOHA, QATAR, P.O. BOX 520","extended_address":null,"locality":null,"region":null,"region_code":null,"postal_code":"09898","country_name":null,"country_code":"QA","latitude":25.3036036,"longitude":51.471328,"email_addresses":[],"phone_numbers":[],"urls":[],"services":[]},{"id":null,"name":"US NAVY SPT FAC, DIEGO GARCIA, BIOT","street_address":"SITE DIRECTOR, NAVSUP FLCY SITE DIEGO GARCIA","extended_address":"ATTENTION PERSONAL PROPERTY, PSC 466 BOX 4","locality":"DIEGO GARCIA","region":null,"region_code":null,"postal_code":"96595","country_name":null,"country_code":"IO","latitude":null,"longitude":null,"email_addresses":[{"email_address":"christopher.lampa.ctr.rp@fe.navy.mil","note":"Customer Service"},{"email_address":"garizalde.aco.ctr.rp@fe.navy.mil","note":"Customer Service"},{"email_address":"garizalde.aco.ctr.rp@fe.navy.mil","note":"TO"}],"phone_numbers":[{"phone_number":"03702815","phone_type":"voice","dsn":false},{"phone_number":"03703956","phone_type":"fax","dsn":false},{"phone_number":"3702815","phone_type":"voice","dsn":true},{"phone_number":"3703956","phone_type":"fax","dsn":true}],"urls":[],"services":[]},{"id":null,"name":"PPSO, FORT LEONARD WOOD, MO","street_address":"DOL TRANSPORTATION","extended_address":"140 REPLACEMENT AVE, STE 1222","locality":"FORT LEONARD WOOD","region":null,"region_code":"MO","postal_code":"65473","country_name":null,"country_code":"US","latitude":37.7259436,"longitude":-92.1253854,"email_addresses":[{"email_address":"USARMY.LEONARDWOOD.USAG.MBX.DOLHHG@MAIL.MIL","note":"Email"}],"phone_numbers":[{"phone_number":"5735960060","phone_type":"fax","dsn":false},{"phone_number":"5735960077","phone_type":"voice","dsn":false},{"phone_number":"5810077","phone_type":"voice","dsn":true},{"phone_number":"573-596-0077","phone_type":"voice","dsn":false},{"phone_number":"581-0844","phone_type":"voice","dsn":true},{"phone_number":"5735960617","phone_type":"voice","dsn":false},{"phone_number":"5735960844","phone_type":"voice","dsn":false},{"phone_number":"581-0077","phone_type":"voice","dsn":true}],"urls":[],"services":[]},{"id":null,"name":"FISC, JAX DET, CORPUS CHRISTI, TX","street_address":"FISC JAX CORPUS CHRISTI DET","extended_address":"9035 OCEAN DRIVE  BLDG 10  NAS","locality":"CORPUS CHRISTI","region":null,"region_code":"TX","postal_code":"78419","country_name":null,"country_code":"US","latitude":27.6856312,"longitude":-97.2464071,"email_addresses":[{"email_address":"corpuschristippty@navy.mil","note":"Customer Service"},{"email_address":"charles.e.wilson3@navy.mil","note":"QC/QA"},{"email_address":"corpuschristippty@navy.mil","note":"SmartWebMove Email"}],"phone_numbers":[{"phone_number":"3619613742","phone_type":"voice","dsn":false,"note":"corpuschristippty@navy.mil"},{"phone_number":"3619613729","phone_type":"voice","dsn":false,"note":"corpuschristippty@navy.mil"},{"phone_number":"3619613728","phone_type":"voice","dsn":false,"note":"corpuschristippty@navy.mil"},{"phone_number":"3619612601","phone_type":"voice","dsn":false,"note":"corpuschristippty@navy.mil"},{"phone_number":"3619613366","phone_type":"fax","dsn":false},{"phone_number":"8613366","phone_type":"fax","dsn":true}],"urls":[],"services":[]},{"id":null,"name":"FORT LEAVENWORTH, KS","street_address":"LOGISTICS READINESS CENTER (LRC)","extended_address":"450 POPE AVENUE","locality":"FORT LEAVENWORTH","region":null,"region_code":"KS","postal_code":"66027","country_name":null,"country_code":"US","latitude":-94.92478,"longitude":39.352943,"email_addresses":[{"email_address":"usarmy.leavenworth.imcom-central.mbx.ppso@mail.mil","note":"Customer Service"}],"phone_numbers":[{"phone_number":"9136842351","phone_type":"fax","dsn":false},{"phone_number":"9136845656","phone_type":"voice","dsn":false},{"phone_number":"5522351","phone_type":"fax","dsn":true},{"phone_number":"5525656","phone_type":"voice","dsn":true},{"phone_number":"9136845655","phone_type":"voice","dsn":false},{"phone_number":"9136845642","phone_type":"voice","dsn":false},{"phone_number":"9136845643","phone_type":"voice","dsn":false},{"phone_number":"5525642","phone_type":"voice","dsn":true},{"phone_number":"5525643","phone_type":"voice","dsn":true},{"phone_number":"9136845651","phone_type":"voice","dsn":false},{"phone_number":"9136848911","phone_type":"voice","dsn":false},{"phone_number":"9136845630","phone_type":"voice","dsn":false,"note":"Supervisor"}],"urls":[],"services":[]},{"id":null,"name":"FORT BUCHANAN, PUERTO RICO","street_address":"152 Chrisman RD","extended_address":"FT Buchanan PR 00934  (DO NOT USE THE APO SPACE)","locality":"FORT BUCHANAN","region":null,"region_code":null,"postal_code":"00934","country_name":null,"country_code":"PR","latitude":18.412758,"longitude":-66.114991,"email_addresses":[{"email_address":"grecia.n.mirabal.ctr@mail.mil","note":"Inbound"},{"email_address":"nathaniel.santanaroman.civ@mail.mil","note":"Outbound"},{"email_address":"gilberto.j.hernandez7.civ@mail.mil","note":"Outbound"},{"email_address":"roberto.a.bras.civ@mail.mil","note":"QC/QA"}],"phone_numbers":[{"phone_number":"7877073895","phone_type":"voice","dsn":false,"note":"USVI"},{"phone_number":"7403750","phone_type":"fax","dsn":true,"note":"USVI"},{"phone_number":"7877073587","phone_type":"voice","dsn":false,"note":"Puerto Rico only"},{"phone_number":"7877073596","phone_type":"fax","dsn":false},{"phone_number":"7403587","phone_type":"voice","dsn":true},{"phone_number":"7877074005","phone_type":"voice","dsn":false},{"phone_number":"7404005","phone_type":"voice","dsn":true},{"phone_number":"7877073892","phone_type":"voice","dsn":false},{"phone_number":"7403596","phone_type":"fax","dsn":true,"note":"All other"},{"phone_number":"7877073750","phone_type":"fax","dsn":false}],"urls":[],"services":[]},{"id":null,"name":"NAVY REGION CENTER, SINGAPORE","street_address":"NAVSUP FLCY SITE SINGAPORE","extended_address":"PPSO C444 PSC 470 BOX 2150","locality":"SINGAPORE","region":null,"region_code":null,"postal_code":"96534","country_name":null,"country_code":"SG","latitude":1.2995092,"longitude":103.8370003,"email_addresses":[{"email_address":"hhg.singapore@fe.navy.mil","note":"Email"}],"phone_numbers":[{"phone_number":"67502523","phone_type":"voice","dsn":false},{"phone_number":"4212523","phone_type":"voice","dsn":true},{"phone_number":"67502080","phone_type":"fax","dsn":false},{"phone_number":"4212635","phone_type":"fax","dsn":true}],"urls":[],"services":[]},{"id":null,"name":"FLCSI-NAPLES, ITALY","street_address":"NAVSUP Fleet Logistics Center Sigonella-Naples","extended_address":"PSC 808 BOX 42","locality":"NAPLES","region":null,"region_code":null,"postal_code":"09618","country_name":null,"country_code":"IT","latitude":33.822553,"longitude":-118.04603,"email_addresses":[{"email_address":"ppso-naples@eu.navy.mil","note":"Customer Service"}],"phone_numbers":[{"phone_number":"0818116778","phone_type":"voice","dsn":false},{"phone_number":"0818116949","phone_type":"fax","dsn":false},{"phone_number":"6296778","phone_type":"voice","dsn":true},{"phone_number":"6296949","phone_type":"fax","dsn":true}],"urls":[],"services":[]},{"id":null,"name":"337 ASUF, CANBERRA, AUSTRALIA","street_address":"337 ASUF","extended_address":"7800 Canberra Place","locality":"WASHINGTON","region":null,"region_code":"DC","postal_code":"20521","country_name":null,"country_code":"US","latitude":38.9452881,"longitude":-77.0264652,"email_addresses":[{"email_address":"337asuf.lgt@us.af.mil","note":"TMO"}],"phone_numbers":[{"phone_number":"262145610","phone_type":"voice","dsn":false},{"phone_number":"262145879","phone_type":"voice","dsn":false},{"phone_number":"3665681","phone_type":"voice","dsn":true},{"phone_number":"2-6273-5231","phone_type":"fax","dsn":false}],"urls":[],"services":[]},{"id":null,"name":"374 LRS, YOKOTA AB, JAPAN","street_address":"ATTN LRS/LGRDF","extended_address":"UNIT 5120","locality":"FUSSA","region":null,"region_code":null,"postal_code":"96328","country_name":null,"country_code":"JP","latitude":35.7433667,"longitude":139.3304985,"email_addresses":[{"email_address":"374lrs.lgrdf@us.af.mil","note":"TMO"}],"phone_numbers":[{"phone_number":"425522510","phone_type":"voice","dsn":false},{"phone_number":"2259724","phone_type":"voice","dsn":true},{"phone_number":"2259725","phone_type":"voice","dsn":true},{"phone_number":"2259732","phone_type":"voice","dsn":true},{"phone_number":"2259733","phone_type":"voice","dsn":true},{"phone_number":"2258565","phone_type":"voice","dsn":true},{"phone_number":"425522510","phone_type":"fax","dsn":false,"note":"EXT-59606"},{"phone_number":"2259606","phone_type":"fax","dsn":true},{"phone_number":"2257622","phone_type":"voice","dsn":true}],"urls":[],"services":[]},{"id":null,"name":"NAVAL AIR FACILITY, ATSUGI, JAPAN","street_address":"ATTN CODE 442","extended_address":"FLC YOKOSUKA SITE ATSUGI PSC 477 BOX 4","locality":"ATSUGI","region":null,"region_code":null,"postal_code":"96306","country_name":null,"country_code":"JP","latitude":35.4581818,"longitude":139.4478945,"email_addresses":[{"email_address":"M-AT-NAVSUP-FLCY-HHG@fe.navy.mil","note":"Inbound"},{"email_address":"M-AT-NAVSUP-FLCY-HHG@fe.navy.mil","note":"Outbound"},{"email_address":"M-AT-NAVSUP-FLCY-HHG@fe.navy.mil","note":"TO"}],"phone_numbers":[{"phone_number":"467-63-4139","phone_type":"fax","dsn":false},{"phone_number":"467633131","phone_type":"voice","dsn":false},{"phone_number":"2643131","phone_type":"voice","dsn":true},{"phone_number":"2644139","phone_type":"fax","dsn":true},{"phone_number":"467633754","phone_type":"voice","dsn":false},{"phone_number":"467634142","phone_type":"voice","dsn":false},{"phone_number":"2643754","phone_type":"voice","dsn":true},{"phone_number":"2644142","phone_type":"voice","dsn":true}],"urls":[],"services":[]},{"id":null,"name":"CBO YONGSAN, KOREA","street_address":"USA LRC-YONGSAN 403D AFSB","extended_address":null,"locality":"SEOUL","region":null,"region_code":null,"postal_code":"96205","country_name":null,"country_code":"KR","latitude":37.566535,"longitude":126.9779692,"email_addresses":[{"email_address":"usarmy.yongsan.imcom-pacific.list.usag-yongsan-ppso@mail.mil","note":"Email"}],"phone_numbers":[{"phone_number":"05033225480","phone_type":"voice","dsn":false},{"phone_number":"7225480","phone_type":"voice","dsn":true},{"phone_number":"05033225468","phone_type":"voice","dsn":false},{"phone_number":"7225468","phone_type":"voice","dsn":true},{"phone_number":"05033225465","phone_type":"voice","dsn":false},{"phone_number":"7225465","phone_type":"voice","dsn":true},{"phone_number":"05033225473","phone_type":"voice","dsn":false},{"phone_number":"7225473","phone_type":"voice","dsn":true}],"urls":[],"services":[]},{"id":null,"name":"FORT IRWIN, CA","street_address":"PPSO, NATIONAL TRAINING CENTER","extended_address":"PO BOX 105031","locality":"FORT IRWIN","region":null,"region_code":"CA","postal_code":"92310","country_name":null,"country_code":"US","latitude":35.2632422,"longitude":-116.6906619,"email_addresses":[{"email_address":"usarmy.irwin.imcom.mbx.dol-transportation-division@mail.mil","note":"TO"}],"phone_numbers":[{"phone_number":"7603805331","phone_type":"voice","dsn":false},{"phone_number":"7603807213","phone_type":"voice","dsn":false},{"phone_number":"4705330","phone_type":"voice","dsn":true},{"phone_number":"7603803824","phone_type":"voice","dsn":false},{"phone_number":"4703824","phone_type":"voice","dsn":true},{"phone_number":"7603803058","phone_type":"voice","dsn":false},{"phone_number":"7603804252","phone_type":"voice","dsn":false},{"phone_number":"4703058","phone_type":"voice","dsn":true},{"phone_number":"4703652","phone_type":"voice","dsn":true},{"phone_number":"7603805860","phone_type":"fax","dsn":false},{"phone_number":"4703816","phone_type":"voice","dsn":true},{"phone_number":"4705860","phone_type":"fax","dsn":true}],"urls":[],"services":[]},{"id":null,"name":"JOINT REGION MARIANAS, GUAM","street_address":"FLCY GUAM SITE","extended_address":"PSC 455 BOX 170","locality":"SANTA RITA","region":null,"region_code":null,"postal_code":"96540","country_name":null,"country_code":"GU","latitude":29.5797631,"longitude":-98.7781335,"email_addresses":[{"email_address":"guampersonalproperty@fe.navy.mil","note":"Customer Service"},{"email_address":"danielle.duenas.ctr@fe.navy.mil","note":"Inbound"},{"email_address":"doris.fegurgur.ctr@fe.navy.mil","note":"Outbound"},{"email_address":"dianalee.naputi@fe.navy.mil","note":"QA"},{"email_address":"dianalee.naputi@fe.navy.mil","note":"Shipment Support"},{"email_address":"christianna.ramez.ctr@fe.navy.mil","note":"TQAP"}],"phone_numbers":[{"phone_number":"6713332045","phone_type":"voice","dsn":false},{"phone_number":"6713394154","phone_type":"fax","dsn":false},{"phone_number":"3332045","phone_type":"voice","dsn":true,"note":"PPSO"},{"phone_number":"3394154","phone_type":"fax","dsn":true},{"phone_number":"6713332046","phone_type":"voice","dsn":false},{"phone_number":"6713332040","phone_type":"voice","dsn":false},{"phone_number":"3396087","phone_type":"voice","dsn":true},{"phone_number":"6713394628","phone_type":"voice","dsn":false}],"urls":[],"services":[]},{"id":null,"name":"8 LRS, KUNSAN AB KOREA","street_address":"8 LRS/LGRD","extended_address":"UNIT 2025","locality":"KUNSAN","region":null,"region_code":null,"postal_code":"96264","country_name":null,"country_code":"KR","latitude":35.9676772,"longitude":126.7366293,"email_addresses":[{"email_address":"8LRS.LGTT@us.af.mil","note":"TMO"}],"phone_numbers":[{"phone_number":"1182634704741","phone_type":"voice","dsn":false},{"phone_number":"1182634705762","phone_type":"fax","dsn":false},{"phone_number":"7825762","phone_type":"fax","dsn":true},{"phone_number":"7824844","phone_type":"voice","dsn":true},{"phone_number":"7826370","phone_type":"voice","dsn":true},{"phone_number":"7828196","phone_type":"voice","dsn":true},{"phone_number":"1182634708381","phone_type":"voice","dsn":false},{"phone_number":"7825391","phone_type":"voice","dsn":true}],"urls":[],"services":[]},{"id":null,"name":"FLCSI SOUDA BAY CRETE","street_address":"PERSONAL PROPERTY OFFICE","extended_address":"PSC 814 BOX 3","locality":"CHANIA","region":null,"region_code":null,"postal_code":"09865","country_name":null,"country_code":"GR","latitude":37.9900225,"longitude":23.5045996,"email_addresses":[{"email_address":"ppso-souda@eu.navy.mil","note":"Customer Service"},{"email_address":"marina.baxevani.gr@eu.navy.mil","note":"QC/QA"}],"phone_numbers":[{"phone_number":"2821021630","phone_type":"fax","dsn":false},{"phone_number":"2661630","phone_type":"fax","dsn":true},{"phone_number":"0112821021535","phone_type":"voice","dsn":false},{"phone_number":"2661397","phone_type":"voice","dsn":true},{"phone_number":"0112821021255","phone_type":"voice","dsn":false}],"urls":[],"services":[]},{"id":null,"name":"52 LRS, SPANGDAHLEM AFB, GERMANY","street_address":"UNIT 3665","extended_address":"ATTN:  Personal Property Office","locality":"SPANGDAHLEM","region":null,"region_code":null,"postal_code":"09126","country_name":null,"country_code":"DE","latitude":49.9972133,"longitude":6.7016172,"email_addresses":[{"email_address":"52lrs/lgrdPersonalProperty@spangdahlem.af.mil","note":"Inbound"},{"email_address":"52lrs/lgrdPersonalProperty@spangdahlem.af.mil","note":"Outbound"},{"email_address":"52lrs/lgrdPersonalProperty@spangdahlem.af.mil","note":"QC/QA"},{"email_address":"52lrs/lgrdPersonalProperty@spangdahlem.af.mil","note":"TO"}],"phone_numbers":[{"phone_number":"6565-61-5482","phone_type":"fax","dsn":false},{"phone_number":"6565617319","phone_type":"voice","dsn":false},{"phone_number":"4525482","phone_type":"fax","dsn":true},{"phone_number":"4527319","phone_type":"voice","dsn":true},{"phone_number":"6565-61-7889","phone_type":"fax","dsn":false},{"phone_number":"6565616068","phone_type":"voice","dsn":false},{"phone_number":"4526068","phone_type":"voice","dsn":true},{"phone_number":"4527889","phone_type":"fax","dsn":true},{"phone_number":"4526027","phone_type":"voice","dsn":true},{"phone_number":"6565616027","phone_type":"voice","dsn":false},{"phone_number":"6565614439","phone_type":"voice","dsn":false},{"phone_number":"4524439","phone_type":"voice","dsn":true}],"urls":[],"services":[]},{"id":null,"name":"JOINT PERS PROP SHIPPING OFFICE - NJ","street_address":"ATTN:  IMNE-JJP-DIR","extended_address":"BLDG 5139 PEMBERTON/FORT DIX ROAD","locality":"FORT DIX","region":null,"region_code":"NJ","postal_code":"08640","country_name":null,"country_code":"US","latitude":40.0127803,"longitude":-74.6224755,"email_addresses":[],"phone_numbers":[],"urls":[],"services":[]},{"id":null,"name":"DLIFLC \u0026 PRESIDIO MONTEREY, CA","street_address":"ATTN:  IMWE-POM-LGT","extended_address":"1712 PRIVATE BOLIO RD BLDG 517","locality":"PRESIDIO OF MONTEREY","region":null,"region_code":"CA","postal_code":"93944","country_name":null,"country_code":"US","latitude":36.6053401,"longitude":-121.9116686,"email_addresses":[{"email_address":"krystal.g.lazcano.ctr@mail.mil","note":"DPM/OTO"},{"email_address":"usarmy.pom.106-sig-bde.list.pres-msgto@mail.mil","note":"Email"},{"email_address":"nikki.r.martinez2.ctr@mail.mil","note":"Inbound"},{"email_address":"natalie.kelly1.ctr@mail.mil","note":"NTS"},{"email_address":"shelia.m.hammond.ctr@mail.mil","note":"Outbound"},{"email_address":"emily.n.magdaleno.ctr@mail.mil","note":"TMO"}],"phone_numbers":[{"phone_number":"8312426456","phone_type":"voice","dsn":false},{"phone_number":"8312425096","phone_type":"voice","dsn":false},{"phone_number":"8312425923","phone_type":"fax","dsn":false},{"phone_number":"7685096","phone_type":"voice","dsn":true},{"phone_number":"7685923","phone_type":"fax","dsn":true},{"phone_number":"8312425072","phone_type":"voice","dsn":false},{"phone_number":"7685072","phone_type":"voice","dsn":true},{"phone_number":"8312425330","phone_type":"voice","dsn":false},{"phone_number":"8312426848","phone_type":"voice","dsn":false},{"phone_number":"7685330","phone_type":"voice","dsn":true},{"phone_number":"8312426457","phone_type":"voice","dsn":false},{"phone_number":"7686457","phone_type":"voice","dsn":true},{"phone_number":"7686456","phone_type":"voice","dsn":true},{"phone_number":"8312425821","phone_type":"fax","dsn":false},{"phone_number":"8312426446","phone_type":"fax","dsn":false},{"phone_number":"8312426450","phone_type":"voice","dsn":false},{"phone_number":"7685821","phone_type":"fax","dsn":true},{"phone_number":"7686450","phone_type":"voice","dsn":true}],"urls":[],"services":[]},{"id":null,"name":"INCIRLIK AB, ADANA, TURKEY","street_address":"ATTN LGRD","extended_address":"39 LRS INCIRLIK AB UNIT 7085 BOX 128","locality":"ADANA","region":null,"region_code":null,"postal_code":"09824","country_name":null,"country_code":"TR","latitude":38.6427254,"longitude":-121.3253005,"email_addresses":[{"email_address":"39lrs.ppo@us.af.mil","note":"Customer Service"},{"email_address":"quality.assurance@us.af.mil","note":"QC/QA"}],"phone_numbers":[{"phone_number":"903223166030","phone_type":"voice","dsn":false},{"phone_number":"6766030","phone_type":"voice","dsn":true},{"phone_number":"903223166612","phone_type":"voice","dsn":false},{"phone_number":"6766612","phone_type":"voice","dsn":true},{"phone_number":"6763238","phone_type":"voice","dsn":true}],"urls":[],"services":[]},{"id":null,"name":"MCAS, BEAUFORT, SC","street_address":"MARINE CORPS AIR STATION","extended_address":null,"locality":"BEAUFORT","region":null,"region_code":"SC","postal_code":"29904","country_name":null,"country_code":"US","latitude":32.4755067,"longitude":-80.7146338,"email_addresses":[],"phone_numbers":[],"urls":[],"services":[]},{"id":null,"name":"18TH LRS, KADENA AB, JAPAN","street_address":"18LRS/LGRD","extended_address":"UNIT 5198, KADENA AB","locality":"OKINAWA","region":null,"region_code":null,"postal_code":"96368","country_name":null,"country_code":"JP","latitude":40.764469,"longitude":-73.771751,"email_addresses":[{"email_address":"18LRS.PPTYInbound@us.af.mil","note":"Inbound"},{"email_address":"18LRS.PPTYOutbound@us.af.mil","note":"Outbound"},{"email_address":"18LRS.LGRTQA@us.af.mil","note":"QA"}],"phone_numbers":[{"phone_number":"6117340045","phone_type":"fax","dsn":false},{"phone_number":"6340045","phone_type":"fax","dsn":true},{"phone_number":"6117347863","phone_type":"voice","dsn":false},{"phone_number":"6347863","phone_type":"voice","dsn":true},{"phone_number":"6117320068","phone_type":"voice","dsn":false},{"phone_number":"6320068","phone_type":"voice","dsn":true},{"phone_number":"6117347854","phone_type":"voice","dsn":false},{"phone_number":"6347854","phone_type":"voice","dsn":true}],"urls":[],"services":[]},{"id":null,"name":"CG BASE KETCHIKAN, AK","street_address":"BASE KETCHIKAN (TO)","extended_address":"1300 STEDMAN STREET","locality":"KETCHIKAN","region":null,"region_code":"AK","postal_code":"99901","country_name":null,"country_code":"US","latitude":-131.6252,"longitude":55.333633,"email_addresses":[{"email_address":"D17-SMB-TRANS@USCG.MIL","note":"Customer Service"}],"phone_numbers":[{"phone_number":"9072286433","phone_type":"voice","dsn":false}],"urls":[],"services":[]},{"id":null,"name":"CPPSO - HD, FORT HOOD, TX","street_address":"TRANSPORTATION OFFICE","extended_address":"18010 T.J. MILLS BLVD.","locality":"FORT HOOD","region":null,"region_code":"TX","postal_code":"76544","country_name":null,"country_code":"US","latitude":31.1417792,"longitude":-97.7659946,"email_addresses":[{"email_address":"usarmy.hood.lrc.mbx.trans-pers-prop-outbound@mail.mil","note":"Customer Service"},{"email_address":"usarmy.hood.lrc.mbx.trans-pers-prop-inbound@mail.mil","note":"Inbound"},{"email_address":"usarmy.hood.lrc.mbx.trans-pers-prop-nts@mail.mil","note":"NTS"},{"email_address":"usarmy.hood.usag.mbx.dol-ppopns@mail.mil","note":"Outbound"},{"email_address":"usarmy.hood.lrc.mbx.trans-pers-prop-qa@mail.mil","note":"QA"}],"phone_numbers":[{"phone_number":"2542875608","phone_type":"fax","dsn":false,"note":"Counseling/PPM   In-Outbound"},{"phone_number":"254872200","phone_type":"voice","dsn":false,"note":"Customer Service"},{"phone_number":"7372200","phone_type":"voice","dsn":true,"note":"CUST SVC"},{"phone_number":"7375608","phone_type":"fax","dsn":true,"note":"Counseling/PPM   In-Outbound"},{"phone_number":"2542872200","phone_type":"voice","dsn":false,"note":"SIT"},{"phone_number":"2542878688","phone_type":"voice","dsn":false,"note":"PPM"},{"phone_number":"2542880298","phone_type":"fax","dsn":false,"note":"SIT"},{"phone_number":"7372200","phone_type":"voice","dsn":true,"note":"EXT 1"},{"phone_number":"7378688","phone_type":"voice","dsn":true,"note":"Counseling/PPM In-Out Bound"},{"phone_number":"7380298","phone_type":"fax","dsn":true,"note":"SIT"},{"phone_number":"2542872200","phone_type":"voice","dsn":false,"note":"NTS"},{"phone_number":"2542880298","phone_type":"fax","dsn":false},{"phone_number":"7372200","phone_type":"voice","dsn":true,"note":"EXT 2"},{"phone_number":"7380298","phone_type":"fax","dsn":true},{"phone_number":"2542872200","phone_type":"voice","dsn":false,"note":"Counseling/Application/PPM In-Out Bound"},{"phone_number":"7372200","phone_type":"voice","dsn":true,"note":"EXT 3"},{"phone_number":"2542876152","phone_type":"voice","dsn":false,"note":"QA"},{"phone_number":"7376152","phone_type":"voice","dsn":true,"note":"QA"}],"urls":[],"services":[]},{"id":null,"name":"31 FW, AVIANO AB, ITALY","street_address":"ATTN LGRDDF","extended_address":"31 FIGHTER WING UNIT 6109 PO BOX 120","locality":"AVIANO","region":null,"region_code":null,"postal_code":"09604","country_name":null,"country_code":"IT","latitude":46.0695445,"longitude":12.5881394,"email_addresses":[{"email_address":"31lrs.tmo.qa@us.af.mil","note":"QA"},{"email_address":"16AF.TCO@us.af.mil","note":"TMO"}],"phone_numbers":[{"phone_number":"0434306017","phone_type":"voice","dsn":false},{"phone_number":"6326017","phone_type":"voice","dsn":true},{"phone_number":"0434301709","phone_type":"voice","dsn":false},{"phone_number":"6321709","phone_type":"voice","dsn":true}],"urls":[],"services":[]},{"id":null,"name":"PALMEROLA AB (SOTO CANO), HONDURAS","street_address":"ATTENTION: JPPSO","extended_address":"UNIT 5722","locality":"COMAYAGUA","region":null,"region_code":null,"postal_code":"34042","country_name":null,"country_code":"HN","latitude":14.4490149,"longitude":-87.6482474,"email_addresses":[{"email_address":"elisa.ortiz.ctr.hn@jtfb.southcom.mil","note":"Email"},{"email_address":"kenya.manueles.ctr.hn@jtfb.southcom.mil","note":"Email"},{"email_address":"fanny.banegas.ctr.hn@jtfb.southcom.mil","note":"Email"}],"phone_numbers":[{"phone_number":"22344634","phone_type":"voice","dsn":false},{"phone_number":"22378833","phone_type":"voice","dsn":false},{"phone_number":"50422378696","phone_type":"fax","dsn":false,"note":"ext. 6109"},{"phone_number":"4496107","phone_type":"voice","dsn":true},{"phone_number":"4496108","phone_type":"voice","dsn":true},{"phone_number":"4496109","phone_type":"fax","dsn":true}],"urls":[],"services":[]},{"id":null,"name":"426 ABS , STAVANGER CITY , NORWAY","street_address":"ATTN LGT PERSONAL PROPERTY","extended_address":"426 ABS UNIT 6615","locality":"STAVANGER","region":null,"region_code":null,"postal_code":"09706","country_name":null,"country_code":"NO","latitude":47.7423608,"longitude":-122.6303259,"email_addresses":[{"email_address":"426abs.paxproperty@us.af.mil","note":"Customer Service"}],"phone_numbers":[{"phone_number":"51950572","phone_type":"voice","dsn":false},{"phone_number":"51950573","phone_type":"voice","dsn":false},{"phone_number":"2240572","phone_type":"voice","dsn":true},{"phone_number":"2240573","phone_type":"voice","dsn":true},{"phone_number":"51950574","phone_type":"voice","dsn":false},{"phone_number":"2240574","phone_type":"voice","dsn":true}],"urls":[],"services":[]},{"id":null,"name":"MANTA AB, ECUADOR","street_address":"478 EOS/FOL","extended_address":null,"locality":"MANTA","region":null,"region_code":null,"postal_code":"34076","country_name":null,"country_code":"EC","latitude":25.5749504,"longitude":-80.3421954,"email_addresses":[],"phone_numbers":[],"urls":[],"services":[]},{"id":null,"name":"CYPRUS PROJECT OLIVE HARVEST, CYPRUS","street_address":"ATTN CC DET 1 PROJECT OLIVE HARVEST","extended_address":"UNIT 8260 PSC 94","locality":"AKROTIRI","region":null,"region_code":null,"postal_code":"09842","country_name":null,"country_code":"CY","latitude":42.4091502,"longitude":27.7021576,"email_addresses":[],"phone_numbers":[{"phone_number":"357-52-75068","phone_type":"voice","dsn":false}],"urls":[],"services":[]},{"id":null,"name":"ALICE SPRINGS, AUSTRALIA","street_address":"AFMC/A5J FIELD OFFICE M","extended_address":"PSC 276","locality":"ALICE SPRINGS","region":null,"region_code":null,"postal_code":"96548","country_name":null,"country_code":"AU","latitude":40.5233666,"longitude":-111.956522,"email_addresses":[{"email_address":"alice.transportation@gmail.com","note":"Email"}],"phone_numbers":[{"phone_number":"889512047","phone_type":"voice","dsn":false},{"phone_number":"889512062","phone_type":"fax","dsn":false}],"urls":[],"services":[]},{"id":null,"name":"RAF MILDENHALL, ENGLAND","street_address":"RAF MILDENHALL","extended_address":null,"locality":"MILDENHALL","region":null,"region_code":null,"postal_code":"09459","country_name":null,"country_code":"GB","latitude":52.3613634,"longitude":0.4866429,"email_addresses":[{"email_address":"teresa.gooch.gb@us.af.mil","note":"Inbound"},{"email_address":"christopher.lowery@us.af.mil","note":"Outbound"},{"email_address":"jennifer.spalinger.1@us.af.mil","note":"QA"},{"email_address":"100LRS.TMO@US.AF.MIL","note":"Shipment Support"}],"phone_numbers":[{"phone_number":"11441638542201","phone_type":"voice","dsn":false},{"phone_number":"2382201","phone_type":"voice","dsn":true},{"phone_number":"11441638545241","phone_type":"fax","dsn":false},{"phone_number":"2385241","phone_type":"fax","dsn":true},{"phone_number":"2382202","phone_type":"voice","dsn":true}],"urls":[],"services":[]},{"id":null,"name":"376 ELRS/LGRD, MANAS AB, KYRGYZ REPU","street_address":"MANAS AIR BASE","extended_address":null,"locality":"BISHKEK","region":null,"region_code":null,"postal_code":"09353","country_name":null,"country_code":"KG","latitude":43.0584523,"longitude":74.4730782,"email_addresses":[{"email_address":"376AEW.TMOPAX@maab.afcent.af.mil","note":"TMO"}],"phone_numbers":[{"phone_number":"4415468","phone_type":"voice","dsn":true,"note":"5466"},{"phone_number":"312693635","phone_type":"voice","dsn":false,"note":"then dial 441-4-5468"}],"urls":[],"services":[]},{"id":null,"name":"821 ABG, THULE AIR BASE GREENLAND","street_address":"ATTN AMOT","extended_address":"821 ABG PITUFFIK BLVD 619","locality":"THULE","region":null,"region_code":null,"postal_code":"09704","country_name":null,"country_code":"GL","latitude":36.0925306,"longitude":-115.3158094,"email_addresses":[],"phone_numbers":[{"phone_number":"7194743840","phone_type":"voice","dsn":false}],"urls":[],"services":[]},{"id":null,"name":"AMERICAN EMBASSY, BAGHDAD, IRAQ","street_address":"GENERAL SERVICE OFFICE / SHIPPING SECTION","extended_address":"AL KINDHI STREET","locality":"BAGHDAD","region":null,"region_code":null,"postal_code":"09870","country_name":null,"country_code":"IQ","latitude":21.4795191,"longitude":39.2468286,"email_addresses":[{"email_address":"BAGHDADGSOCUSTOMERSE@STATE.GOV","note":"Email"}],"phone_numbers":[{"phone_number":"011240553","phone_type":"voice","dsn":false,"note":"EXT-4071"},{"phone_number":"011240553","phone_type":"voice","dsn":false,"note":"EXT-2499"}],"urls":[],"services":[]},{"id":null,"name":"ARCENT, DOHA, QATAR/CLOSED SEE OFAK","street_address":"ARCENT-QATAR","extended_address":"Bldg 110","locality":"DOHA","region":null,"region_code":null,"postal_code":"09898","country_name":null,"country_code":"QA","latitude":32.9023751,"longitude":-117.1058545,"email_addresses":[{"email_address":"usarmy.as-sayliyah.asg-qatar.mbx.ito@mail.mil","note":"TMO"}],"phone_numbers":[{"phone_number":"4322195","phone_type":"voice","dsn":true}],"urls":[],"services":[]},{"id":null,"name":"MCAS, IWAKUNI, JAPAN","street_address":"DISTRIBUTION MANAGMENT OFFICE","extended_address":"MARINE CORPS AIR STATION PSC 561 BOX 1873","locality":"IWAKUNI","region":null,"region_code":null,"postal_code":"96310","country_name":null,"country_code":"JP","latitude":34.1439938,"longitude":132.2306132,"email_addresses":[{"email_address":"IWKN_SMBIwakuniTMO@nmci.usmc.mil","note":"Inbound"},{"email_address":"IWKN_SMBIwakuniTMO@nmci.usmc.mil","note":"Outbound"},{"email_address":"IWKN_SMBIwakuniTMO@nmci.usmc.mil","note":"QC/QA"},{"email_address":"IWKN_SMBIwakuniTMO@nmci.usmc.mil","note":"TMO"}],"phone_numbers":[{"phone_number":"827796455","phone_type":"fax","dsn":false},{"phone_number":"2536455","phone_type":"fax","dsn":true},{"phone_number":"2533172","phone_type":"voice","dsn":true},{"phone_number":"2534439","phone_type":"voice","dsn":true},{"phone_number":"2534763","phone_type":"voice","dsn":true},{"phone_number":"2533907","phone_type":"voice","dsn":true},{"phone_number":"827793172","phone_type":"voice","dsn":false}],"urls":[],"services":[]},{"id":null,"name":"QENQ NAVSUP FLC YOKOSUKA, JAPAN","street_address":"JPPSO-JA CODE 440/441","extended_address":"NAVSUP FLC PSC 473 BOX 11","locality":"YOKOSUKA","region":null,"region_code":null,"postal_code":"96349","country_name":null,"country_code":"JP","latitude":35.2906525,"longitude":139.6692776,"email_addresses":[{"email_address":"jppso_jp_storage@fe.navy.mil","note":"Inbound"},{"email_address":"hhg.yokosuka@fe.navy.mil","note":"Outbound"},{"email_address":"jppso_jp_counseling@fe.navy.mil","note":"Outbound"},{"email_address":"jppso_jp_qa_vendor@fe.navy.mil","note":"QC/QA"},{"email_address":"jppso_jp_shipment@fe.navy.mil","note":"Shipment Support"}],"phone_numbers":[{"phone_number":"468167061","phone_type":"voice","dsn":false,"note":"or 7062"},{"phone_number":"2437062","phone_type":"voice","dsn":true,"note":"Receptionist"},{"phone_number":"468162709","phone_type":"fax","dsn":false},{"phone_number":"468165746","phone_type":"fax","dsn":false},{"phone_number":"468166324","phone_type":"voice","dsn":false,"note":"or 6524"},{"phone_number":"2432709","phone_type":"fax","dsn":true}],"urls":[],"services":[]},{"id":null,"name":"ESKAN VILLAGE, RIYADH, SAUDI ARABIA","street_address":"Unit 61333 Box TMO","extended_address":null,"locality":"AL ISKAN","region":null,"region_code":null,"postal_code":"09803","country_name":null,"country_code":"SA","latitude":24.8200529,"longitude":46.8838332,"email_addresses":[{"email_address":"centcom.evab.usmtm.mbx.tmo@mail.mil","note":"Email"}],"phone_numbers":[{"phone_number":"7813651810","phone_type":"voice","dsn":false,"note":"2428"},{"phone_number":"7813651810","phone_type":"voice","dsn":false,"note":"2427"}],"urls":[],"services":[]},{"id":null,"name":"ARCENT-QATAR, DOHA, QATAR","street_address":"ARCENT-QATAR","extended_address":"Bldg 110","locality":"DOHA","region":null,"region_code":null,"postal_code":"09898","country_name":null,"country_code":"QA","latitude":32.9023751,"longitude":-117.1058545,"email_addresses":[{"email_address":"usarmy.as-sayliyah.asg-qatar.mbx.ito@mail.mil","note":"TMO"}],"phone_numbers":[{"phone_number":"4322195","phone_type":"voice","dsn":true}],"urls":[],"services":[]},{"id":null,"name":"JPPSO SOUTH CENTRAL","street_address":"JPPSO SOUTH CENTRAL, DETACHMENT 3","extended_address":"2261 HUGHES AVE, SUITE 160","locality":"LACKLAND AFB","region":null,"region_code":"TX","postal_code":"78236","country_name":null,"country_code":"US","latitude":29.3887899,"longitude":-98.6105703,"email_addresses":[{"email_address":"jppso-sc.cs-ms@us.af.mil","note":"Customer Service"},{"email_address":"jppso-sc.sm-dpm@us.af.mil","note":"DPM/OTO"},{"email_address":"jppso-sc.cs-ms@us.af.mil","note":"Inbound"},{"email_address":"jppso-sc.sm-ps@us.af.mil","note":"NTS"},{"email_address":"jppso-sc.sm-coded@us.af.mil","note":"Outbound"},{"email_address":"jppso-sc.sm-nts@us.af.mil","note":"Outbound"},{"email_address":"jppso-sc.qa-pm@us.af.mil","note":"QA"}],"phone_numbers":[{"phone_number":"8005997708","phone_type":"fax","dsn":false},{"phone_number":"8005997709","phone_type":"voice","dsn":false},{"phone_number":"2103214200","phone_type":"voice","dsn":false},{"phone_number":"9544200","phone_type":"voice","dsn":true},{"phone_number":"2103214255","phone_type":"fax","dsn":false,"note":"For Inbound Shipments"},{"phone_number":"9544255","phone_type":"fax","dsn":true,"note":"For Inbound Shipments"},{"phone_number":"2103214251","phone_type":"fax","dsn":false,"note":"For all NTS  Extensions, if releasing an NTS lot, send paperwork to Outbound"},{"phone_number":"9544251","phone_type":"fax","dsn":true,"note":"For all NTS Extensions, if releasing an NTS lot send paperwork to Outbound"},{"phone_number":"2103214253","phone_type":"fax","dsn":false,"note":"Shipment Applications Our AOR \u0026 NTS Releases/DD1299, DD1797, Orders, etc."},{"phone_number":"9544253","phone_type":"fax","dsn":true,"note":"Shipment Applications Our AOR \u0026 NTS Releases/DD1299, DD1797, Orders, etc."},{"phone_number":"2103214254","phone_type":"fax","dsn":false,"note":"Quality Assurance"},{"phone_number":"9544254","phone_type":"fax","dsn":true,"note":"Quality Assurance"},{"phone_number":"2103214251","phone_type":"fax","dsn":false,"note":"For SIT Extensions, for release or long delivery contact Inbound"},{"phone_number":"9544251","phone_type":"fax","dsn":true,"note":"For SIT Extensions, for release or long delivery, contact Inbound"}],"urls":[],"services":[]},{"id":null,"name":"USA AIR DEF CTR \u0026 FORT BLISS, TX","street_address":"FT BLISS LRC LOGISTICS","extended_address":"504 A/B PERSHING ROAD 1st FLOOR","locality":"FORT BLISS","region":null,"region_code":"TX","postal_code":"79916","country_name":null,"country_code":"US","latitude":31.818148,"longitude":-106.4140868,"email_addresses":[{"email_address":"usarmy.bliss.imcom-central.list.dol-transportation@mail.mil","note":"Customer Service"},{"email_address":"usarmy.bliss.imcom-central.list.dol-ppso@mail.mil","note":"Email"},{"email_address":"jayna.a.providence.ctr@mail.mil","note":"Email"},{"email_address":"thomas.d.white50.ctr@mail.mil","note":"Inbound"},{"email_address":"colleen.c.jauregui.ctr@mail.mil","note":"NTS"}],"phone_numbers":[{"phone_number":"9155683255","phone_type":"voice","dsn":false,"note":"Outbound"},{"phone_number":"9155684493","phone_type":"voice","dsn":false,"note":"Outbound"},{"phone_number":"9155685288","phone_type":"voice","dsn":false,"note":"Outbound"},{"phone_number":"9155685951","phone_type":"voice","dsn":false,"note":"PPM"},{"phone_number":"9155688218","phone_type":"voice","dsn":false,"note":"Outbound"},{"phone_number":"9155689990","phone_type":"voice","dsn":false,"note":"Outbound"},{"phone_number":"9783668","phone_type":"voice","dsn":true,"note":"Inbound"},{"phone_number":"9785288","phone_type":"voice","dsn":true,"note":"Outbound"},{"phone_number":"9155683338","phone_type":"voice","dsn":false,"note":"Inbound"},{"phone_number":"9155683668","phone_type":"voice","dsn":false,"note":"Inbound"},{"phone_number":"9155687671","phone_type":"fax","dsn":false},{"phone_number":"9787671","phone_type":"fax","dsn":true},{"phone_number":"9155687845","phone_type":"voice","dsn":false,"note":"Expired Lot's/NTS Conversions"},{"phone_number":"9155681947","phone_type":"fax","dsn":false},{"phone_number":"9781947","phone_type":"fax","dsn":true}],"urls":[],"services":[]},{"id":null,"name":"JPPSO SE NAVSUP FLCJ FL","street_address":"NAVSUP FLCJ CODE 4031","extended_address":"PO BOX 97 BLDG 110-1","locality":"JACKSONVILLE","region":null,"region_code":"FL","postal_code":"32212","country_name":null,"country_code":"US","latitude":30.2114525,"longitude":-81.6747295,"email_addresses":[{"email_address":"jppso_se_counseling@navy.mil","note":"Customer Service"},{"email_address":"jppso_se_storage@navy.mil","note":"NTS"},{"email_address":"jppso_se_shipment@navy.mil","note":"Outbound"},{"email_address":"jppso_se_qa@navy.mil","note":"QC/QA"},{"email_address":"jppso_se_vendor@navy.mil","note":"Shipment Support"}],"phone_numbers":[{"phone_number":"9045466130","phone_type":"voice","dsn":false,"note":"All sections"},{"phone_number":"5466120","phone_type":"voice","dsn":true,"note":"All sections"},{"phone_number":"5466130","phone_type":"voice","dsn":true,"note":"All sections"},{"phone_number":"9045421092","phone_type":"fax","dsn":false},{"phone_number":"9421092","phone_type":"fax","dsn":true},{"phone_number":"9421211","phone_type":"fax","dsn":true},{"phone_number":"9421214","phone_type":"fax","dsn":true},{"phone_number":"9045466130","phone_type":"voice","dsn":false}],"urls":[],"services":[]},{"id":null,"name":"NAVSUP FLC PUGET SOUND","street_address":"NAVSUP FLCPS PERSONAL PROPERTY CODE 420","extended_address":"2255 COLE AVE BLDG 985","locality":"BREMERTON","region":null,"region_code":"WA","postal_code":"98314","country_name":null,"country_code":"US","latitude":47.5580535,"longitude":-122.6488816,"email_addresses":[{"email_address":"hhg_PS_storage@navy.mil","note":"NTS"},{"email_address":"hhg_PS_counseling@navy.mil","note":"Outbound"},{"email_address":"hhg_PS_vendor@navy.mil","note":"QC/QA"},{"email_address":"hhg_PS_shipment@navy.mil","note":"Shipment Support"}],"phone_numbers":[{"phone_number":"8882825113","phone_type":"voice","dsn":false},{"phone_number":"3604761834","phone_type":"fax","dsn":false},{"phone_number":"3604767366","phone_type":"voice","dsn":false},{"phone_number":"4391834","phone_type":"fax","dsn":true},{"phone_number":"4397366","phone_type":"voice","dsn":true},{"phone_number":"3604769171","phone_type":"fax","dsn":false},{"phone_number":"4399171","phone_type":"fax","dsn":true},{"phone_number":"3604761834","phone_type":"fax","dsn":false,"note":"ALL MAIL IN APPLICATIONS"},{"phone_number":"4391834","phone_type":"fax","dsn":true,"note":"ALL MAIL IN APPLICATIONS"},{"phone_number":"3602573104","phone_type":"voice","dsn":false,"note":"Whidbey Office"},{"phone_number":"4253044018","phone_type":"voice","dsn":false,"note":"Everett Office"},{"phone_number":"2724018","phone_type":"voice","dsn":true,"note":"Everett Office"},{"phone_number":"8203104","phone_type":"voice","dsn":true,"note":"Whidbey Office"},{"phone_number":"3604763457","phone_type":"voice","dsn":false},{"phone_number":"4395022","phone_type":"voice","dsn":true}],"urls":[],"services":[]},{"id":null,"name":"JOINT BASE ELMENDORF-RICHARDSON, AK","street_address":"ATTN: JPPSO-ANC","extended_address":"8517 20TH STREET STE 238","locality":"ELMENDORF AFB","region":null,"region_code":"AK","postal_code":"99506","country_name":null,"country_code":"US","latitude":-149.8023,"longitude":61.241833,"email_addresses":[{"email_address":"jppso-anc@us.af.mil","note":"DPM/OTO"},{"email_address":"inbound.jppso@us.af.mil","note":"Inbound"},{"email_address":"outbound.jppso@us.af.mil","note":"Outbound"},{"email_address":"qa.jppso@us.af.mil","note":"QC/QA"},{"email_address":"jppso-anc@us.af.mil","note":"TMO"},{"email_address":"jppso-anc@us.af.mil","note":"TO"}],"phone_numbers":[{"phone_number":"8772161671","phone_type":"voice","dsn":false},{"phone_number":"9075522209","phone_type":"voice","dsn":false},{"phone_number":"5522209","phone_type":"voice","dsn":true},{"phone_number":"9075522236","phone_type":"fax","dsn":false},{"phone_number":"9075522708","phone_type":"voice","dsn":false,"note":"ALT # 552-8209"},{"phone_number":"5522236","phone_type":"fax","dsn":true},{"phone_number":"5522708","phone_type":"voice","dsn":true,"note":"ALT # 552-8209"},{"phone_number":"9075524366","phone_type":"voice","dsn":false,"note":"ALT # 552-2127"},{"phone_number":"5524366","phone_type":"voice","dsn":true,"note":"ALT # 552-2127"},{"phone_number":"9075522054","phone_type":"fax","dsn":false},{"phone_number":"9075522080","phone_type":"voice","dsn":false,"note":"ALT # 552-3419"},{"phone_number":"5522054","phone_type":"fax","dsn":true},{"phone_number":"5522080","phone_type":"voice","dsn":true,"note":"ALT # 552-3419"},{"phone_number":"9075521453","phone_type":"fax","dsn":false},{"phone_number":"9075527562","phone_type":"voice","dsn":false,"note":"ALT# 552-4002"},{"phone_number":"5521453","phone_type":"fax","dsn":true},{"phone_number":"5527562","phone_type":"voice","dsn":true,"note":"ALT# 552-4002"},{"phone_number":"9075526830","phone_type":"voice","dsn":false,"note":"Traffic Management Officer"},{"phone_number":"9075522701","phone_type":"voice","dsn":false,"note":"JPPSO Director"}],"urls":[],"services":[]},{"id":null,"name":"ITO, LRC-OKINAWA","street_address":"ITO, LRC-OKINAWA","extended_address":"ATTN:ASKO-LTO-T, UNIT 35120","locality":"OKINAWA","region":null,"region_code":null,"postal_code":"96376","country_name":null,"country_code":"JP","latitude":40.764469,"longitude":-73.771751,"email_addresses":[{"email_address":"tomomi.higa.ln@mail.mil","note":"Inbound"},{"email_address":"kaname.tamaki1.ln@mail.mil","note":"QC/QA"},{"email_address":"eric.m.ala.civ@mail.mil","note":"TO"}],"phone_numbers":[{"phone_number":"6117444375","phone_type":"fax","dsn":false},{"phone_number":"6444375","phone_type":"fax","dsn":true},{"phone_number":"6117444753","phone_type":"voice","dsn":false},{"phone_number":"6444753","phone_type":"voice","dsn":true},{"phone_number":"6117444318","phone_type":"voice","dsn":false},{"phone_number":"6444318","phone_type":"voice","dsn":true},{"phone_number":"6117444610","phone_type":"voice","dsn":false},{"phone_number":"6444610","phone_type":"voice","dsn":true}],"urls":[],"services":[]},{"id":null,"name":"JOINT PERS PROP SHIPPING OFFICE - MA","street_address":"9325 GUNSTON RD STE N110","extended_address":"BLDG. 1466","locality":"FORT BELVOIR","region":null,"region_code":"VA","postal_code":"22060","country_name":null,"country_code":"US","latitude":-77.14886,"longitude":38.704556,"email_addresses":[{"email_address":"usarmy.belvoir.imcom.mbx.jppsowa@mail.mil","note":"Email"},{"email_address":"usarmy.belvoir.imcom.mbx.jppsowa-ibdelivery@mail.mil","note":"Inbound"},{"email_address":"usarmy.belvoir.imcom.mbx.jppsoma-nts@mail.mil","note":"NTS"},{"email_address":"usarmy.belvoir.imcom.mbx.jppsowa-qc@mail.mil","note":"QC/QA"},{"email_address":"usarmy.belvoir.imcom.mbx.jppsowa@mail.mil","note":"Shipment Support"}],"phone_numbers":[{"phone_number":"7038064900","phone_type":"voice","dsn":false},{"phone_number":"6564900","phone_type":"voice","dsn":true},{"phone_number":"7038060266","phone_type":"fax","dsn":false},{"phone_number":"6560266","phone_type":"fax","dsn":true},{"phone_number":"7038060740","phone_type":"fax","dsn":false,"note":"NTS"},{"phone_number":"6560351","phone_type":"fax","dsn":true,"note":"NTS Release"},{"phone_number":"6560740","phone_type":"fax","dsn":true,"note":"NTS Release"},{"phone_number":"7038064548","phone_type":"fax","dsn":false,"note":"Booking/Allocations/NTSR"},{"phone_number":"6564678","phone_type":"fax","dsn":true,"note":"Booking/Allocations"},{"phone_number":"7038064548","phone_type":"fax","dsn":false},{"phone_number":"7038064548","phone_type":"fax","dsn":false,"note":"Document Control Branch\\Mail In Applications\\NTS Release \u0026 Pickup."},{"phone_number":"6564548","phone_type":"fax","dsn":true,"note":"Document Control Branch\\Mail In Applications\\NTS Release \u0026 Pickup."}],"urls":[],"services":[]},{"id":null,"name":"FORT DRUM, NY","street_address":"TRANS DIV, LRC","extended_address":"10720 MOUNT BELVEDERE BLVD","locality":"FORT DRUM","region":null,"region_code":"NY","postal_code":"13602","country_name":null,"country_code":"US","latitude":-75.80387,"longitude":44.047695,"email_addresses":[{"email_address":"usarmy.drum.406-afsb-lrc.mbx.ppso-cso@mail.mil","note":"Customer Service"},{"email_address":"dale.r.duffy.civ@mail.mil","note":"QA"},{"email_address":"usarmy.drum.406-afsb-dol.mbx.dol-hhg-qc@mail.mil","note":"QC/QA"},{"email_address":"usarmy.drum.406-afsb-lrc.mbx.dol-ppso@mail.mil","note":"Shipment Support"},{"email_address":"karen.e.williams6.civ@mail.mil","note":"TMO"}],"phone_numbers":[{"phone_number":"3157727776","phone_type":"voice","dsn":false,"note":"OPTION 1"},{"phone_number":"7727776","phone_type":"voice","dsn":true,"note":"Option 1"},{"phone_number":"3157726347","phone_type":"voice","dsn":false},{"phone_number":"7726374","phone_type":"voice","dsn":true},{"phone_number":"3157727776","phone_type":"voice","dsn":false,"note":"Option 3"},{"phone_number":"7727776","phone_type":"voice","dsn":true,"note":"Option 3"},{"phone_number":"3157727776","phone_type":"voice","dsn":false,"note":"Option 4"},{"phone_number":"7727776","phone_type":"voice","dsn":true,"note":"Option 4"},{"phone_number":"3157727776","phone_type":"voice","dsn":false,"note":"Option 2"},{"phone_number":"7727776","phone_type":"voice","dsn":true,"note":"Option 5"},{"phone_number":"3157725836","phone_type":"fax","dsn":false},{"phone_number":"3157727776","phone_type":"voice","dsn":false,"note":"Option 5"},{"phone_number":"7725836","phone_type":"fax","dsn":true},{"phone_number":"315 772 6347","phone_type":"fax","dsn":false},{"phone_number":"7726374","phone_type":"fax","dsn":true}],"urls":[],"services":[]},{"id":null,"name":"NAS PENSACOLA, FL","street_address":"NAVSUP FLC JAX, Pensacola Det.","extended_address":"121 CUDDIHY STREET SUITE C","locality":"PENSACOLA","region":null,"region_code":"FL","postal_code":"32508","country_name":null,"country_code":"US","latitude":30.355867,"longitude":-87.2866995,"email_addresses":[{"email_address":"naspppo@navy.mil","note":"Customer Service"}],"phone_numbers":[{"phone_number":"850-452-2892","phone_type":"fax","dsn":false},{"phone_number":"8504524727","phone_type":"voice","dsn":false},{"phone_number":"9222892","phone_type":"fax","dsn":true},{"phone_number":"9224727","phone_type":"voice","dsn":true},{"phone_number":"850-452-3406","phone_type":"voice","dsn":false},{"phone_number":"9223406","phone_type":"voice","dsn":true},{"phone_number":"850-452-9632","phone_type":"fax","dsn":false},{"phone_number":"8504524654","phone_type":"voice","dsn":false},{"phone_number":"9224654","phone_type":"voice","dsn":true},{"phone_number":"9229632","phone_type":"fax","dsn":true},{"phone_number":"8504522892","phone_type":"fax","dsn":false},{"phone_number":"8504524709","phone_type":"voice","dsn":false},{"phone_number":"9224709","phone_type":"voice","dsn":true},{"phone_number":"8504523224","phone_type":"voice","dsn":false},{"phone_number":"8504529632","phone_type":"fax","dsn":false},{"phone_number":"9223224","phone_type":"voice","dsn":true}],"urls":[],"services":[]},{"id":null,"name":"JRTC \u0026 FORT POLK, LA","street_address":"DOL TRANSPORTATION DIVISION","extended_address":"7585 VIRGINIA AVE,STE 102","locality":"FORT POLK","region":null,"region_code":"LA","postal_code":"71459","country_name":null,"country_code":"US","latitude":31.0567117,"longitude":-93.2131231,"email_addresses":[{"email_address":"usarmy.polk.usamc.mbx.dol-trans@mail.mil","note":"Customer Service"}],"phone_numbers":[{"phone_number":"3375317098","phone_type":"voice","dsn":false},{"phone_number":"863-7098","phone_type":"voice","dsn":true},{"phone_number":"3375311216","phone_type":"voice","dsn":false},{"phone_number":"3375311226","phone_type":"voice","dsn":false,"note":"Approvals"},{"phone_number":"3375312061","phone_type":"fax","dsn":false},{"phone_number":"8631216","phone_type":"voice","dsn":true},{"phone_number":"8631226","phone_type":"voice","dsn":true,"note":"Approval"},{"phone_number":"8632061","phone_type":"fax","dsn":true},{"phone_number":"3375311208","phone_type":"fax","dsn":false},{"phone_number":"3375317097","phone_type":"voice","dsn":false},{"phone_number":"863-7097","phone_type":"voice","dsn":true},{"phone_number":"8631208","phone_type":"fax","dsn":true},{"phone_number":"337-531-1208","phone_type":"fax","dsn":false},{"phone_number":"3375312068","phone_type":"voice","dsn":false,"note":"Approvals"},{"phone_number":"8632068","phone_type":"voice","dsn":true,"note":"Approval"},{"phone_number":"337-531-1355","phone_type":"fax","dsn":false},{"phone_number":"3375311404","phone_type":"voice","dsn":false},{"phone_number":"3375312065","phone_type":"voice","dsn":false},{"phone_number":"3375312282","phone_type":"voice","dsn":false},{"phone_number":"8631355","phone_type":"fax","dsn":true},{"phone_number":"8631404","phone_type":"voice","dsn":true},{"phone_number":"8632065","phone_type":"voice","dsn":true},{"phone_number":"8632282","phone_type":"voice","dsn":true},{"phone_number":"337-531-1415","phone_type":"voice","dsn":false},{"phone_number":"8631415","phone_type":"voice","dsn":true}],"urls":[],"services":[]},{"id":null,"name":"USAG, FORT HAMILTON, BROOKLYN, NY","street_address":"ATTN : 1MNE-HAM-LG","extended_address":"US ARMY GARRISON FT HAMILTON","locality":"BROOKLYN","region":null,"region_code":"NY","postal_code":"11252","country_name":null,"country_code":"US","latitude":40.6111989,"longitude":-74.0278089,"email_addresses":[{"email_address":"usarmy.hamilton.usag.mbx.ppso-org-box@mail.mil","note":"TMO"}],"phone_numbers":[{"phone_number":"7186304195","phone_type":"voice","dsn":false},{"phone_number":"2324195","phone_type":"voice","dsn":true},{"phone_number":"7186304227","phone_type":"voice","dsn":false},{"phone_number":"7186304504","phone_type":"fax","dsn":false},{"phone_number":"2324227","phone_type":"voice","dsn":true},{"phone_number":"2324504","phone_type":"fax","dsn":true},{"phone_number":"7186304197","phone_type":"voice","dsn":false},{"phone_number":"2324197","phone_type":"voice","dsn":true},{"phone_number":"7186304168","phone_type":"fax","dsn":false},{"phone_number":"7186304857","phone_type":"voice","dsn":false},{"phone_number":"2324168","phone_type":"fax","dsn":true},{"phone_number":"2324857","phone_type":"voice","dsn":true},{"phone_number":"7186304839","phone_type":"voice","dsn":false},{"phone_number":"2324080","phone_type":"voice","dsn":true},{"phone_number":"7186304826","phone_type":"voice","dsn":false},{"phone_number":"2324826","phone_type":"voice","dsn":true}],"urls":[],"services":[]},{"id":null,"name":"NAVSUP FLC NORFOLK-CPPSO","street_address":"7920 14TH ST,","extended_address":"BLDG SDA-336","locality":"NORFOLK","region":null,"region_code":"VA","postal_code":"23505","country_name":null,"country_code":"US","latitude":36.9214232,"longitude":-76.3168089,"email_addresses":[{"email_address":"hhg_ma_counseling@navy.mil","note":"Customer Service"},{"email_address":"hhg_ma_shipment@navy.mil","note":"Inbound"},{"email_address":"hhg_ma_storage@navy.mil","note":"NTS"},{"email_address":"hhg_ma_shipment@navy.mil","note":"Outbound"},{"email_address":"hhg_ma_vendor@navy.mil","note":"QC/QA"}],"phone_numbers":[{"phone_number":"8776198596","phone_type":"voice","dsn":false},{"phone_number":"7574433700","phone_type":"voice","dsn":false},{"phone_number":"7574433709","phone_type":"fax","dsn":false,"note":"COUNSELING/CALL CTR"},{"phone_number":"6463700","phone_type":"voice","dsn":true},{"phone_number":"6463709","phone_type":"fax","dsn":true,"note":"COUNSELING/CALL CTR"},{"phone_number":"7574433758","phone_type":"fax","dsn":false,"note":"IB/OB/BKG"},{"phone_number":"6463758","phone_type":"fax","dsn":true,"note":"IB/OB/BKG"},{"phone_number":"7574433725","phone_type":"fax","dsn":false,"note":"VENDOR/STORAGE"},{"phone_number":"6463725","phone_type":"fax","dsn":true,"note":"VENDOR/STORGE"},{"phone_number":"7574433724","phone_type":"fax","dsn":false,"note":"VENDOR/STORAGE"},{"phone_number":"7574433737","phone_type":"fax","dsn":false,"note":"ADMIN"},{"phone_number":"6463737","phone_type":"fax","dsn":true,"note":"ADMIN"},{"phone_number":"7574433748","phone_type":"fax","dsn":false,"note":"IB/OB/BKG"}],"urls":[],"services":[]},{"id":null,"name":"FORT GORDON, GA","street_address":"TRANSPORTATION,  FORT GORDON ATZH-WSL-T","extended_address":"BLDG 33720, ROOM 111","locality":"FORT GORDON","region":null,"region_code":"GA","postal_code":"30905","country_name":null,"country_code":"US","latitude":33.4243373,"longitude":-82.1387233,"email_addresses":[{"email_address":"sheri.f.kniphfer.ctr@mail.mil","note":"Customer Service"},{"email_address":"usarmy.gordon.imcom.mbx.akima-transportation@mail.mil","note":"NTS"}],"phone_numbers":[{"phone_number":"7067911929","phone_type":"voice","dsn":false,"note":"L-M"},{"phone_number":"7801929","phone_type":"voice","dsn":true,"note":"L-Z"},{"phone_number":"7802329","phone_type":"voice","dsn":true,"note":"A-K"},{"phone_number":"7067911760","phone_type":"voice","dsn":false},{"phone_number":"7801760","phone_type":"voice","dsn":true},{"phone_number":"7067914184","phone_type":"voice","dsn":false},{"phone_number":"7804184","phone_type":"voice","dsn":true},{"phone_number":"7067911757","phone_type":"voice","dsn":false,"note":"L-Z"},{"phone_number":"7067911758","phone_type":"voice","dsn":false,"note":"A-K"},{"phone_number":"7801757","phone_type":"voice","dsn":true,"note":"L-Z"},{"phone_number":"7801758","phone_type":"voice","dsn":true,"note":"A-K"},{"phone_number":"7067913172","phone_type":"voice","dsn":false,"note":"Motor Pool"},{"phone_number":"7067911699","phone_type":"fax","dsn":false},{"phone_number":"7801699","phone_type":"fax","dsn":true}],"urls":[],"services":[]},{"id":null,"name":"FORT RUCKER, AL","street_address":"BLDG 5700, ROOM 270","extended_address":"453 NOVOSEL ST","locality":"FORT RUCKER","region":null,"region_code":"AL","postal_code":"36362","country_name":null,"country_code":"US","latitude":31.3254363,"longitude":-85.7145659,"email_addresses":[{"email_address":"usarmy.rucker.avncoe.mbx.imse-rck-lgt@mail.mil","note":"Email"}],"phone_numbers":[{"phone_number":"3342559842","phone_type":"voice","dsn":false},{"phone_number":"5589842","phone_type":"voice","dsn":true},{"phone_number":"3342552343","phone_type":"voice","dsn":false},{"phone_number":"3342552812","phone_type":"fax","dsn":false},{"phone_number":"5582343","phone_type":"voice","dsn":true},{"phone_number":"5582812","phone_type":"fax","dsn":true},{"phone_number":"3342553058","phone_type":"voice","dsn":false},{"phone_number":"5583058","phone_type":"voice","dsn":true},{"phone_number":"3342553536","phone_type":"voice","dsn":false},{"phone_number":"5583536","phone_type":"voice","dsn":true},{"phone_number":"3342552410","phone_type":"voice","dsn":false},{"phone_number":"5582410","phone_type":"voice","dsn":true},{"phone_number":"3342553454","phone_type":"fax","dsn":false},{"phone_number":"3342556023","phone_type":"voice","dsn":false},{"phone_number":"5583454","phone_type":"fax","dsn":true},{"phone_number":"5586023","phone_type":"voice","dsn":true}],"urls":[],"services":[]},{"id":null,"name":"NAS JRB, FORT WORTH, TX","street_address":"NAVAL AIR STATION JRB","extended_address":"1330 MILITARY PARKWAY","locality":"FORT WORTH","region":null,"region_code":"TX","postal_code":"76127","country_name":null,"country_code":"US","latitude":-97.42013,"longitude":32.77144,"email_addresses":[{"email_address":"ftwo_ppso@navy.mil","note":"Customer Service"}],"phone_numbers":[{"phone_number":"877-745-8414","phone_type":"voice","dsn":false},{"phone_number":"8177827245","phone_type":"fax","dsn":false},{"phone_number":"8177827305","phone_type":"voice","dsn":false,"note":"or 233"},{"phone_number":"7397245","phone_type":"fax","dsn":true},{"phone_number":"8177827213","phone_type":"voice","dsn":false,"note":"or 223"},{"phone_number":"8177827212","phone_type":"voice","dsn":false,"note":"or 230 or 231"},{"phone_number":"8177827248","phone_type":"fax","dsn":false},{"phone_number":"7397248","phone_type":"fax","dsn":true},{"phone_number":"817-782-7293","phone_type":"voice","dsn":false},{"phone_number":"817-782-7300","phone_type":"voice","dsn":false},{"phone_number":"8177827290","phone_type":"fax","dsn":false},{"phone_number":"7397290","phone_type":"fax","dsn":true},{"phone_number":"7397300","phone_type":"voice","dsn":true},{"phone_number":"817-782-7301","phone_type":"voice","dsn":false}],"urls":[],"services":[]},{"id":null,"name":"LRC-REDSTONE ARSENAL, ALABAMA","street_address":"406TH ARMY FIELD SUPPORT BRIGADE","extended_address":"LRC, ITO 3433 SNOOPER ROAD","locality":"REDSTONE ARSENAL","region":null,"region_code":"AL","postal_code":"35898","country_name":null,"country_code":"US","latitude":34.63,"longitude":-86.65,"email_addresses":[{"email_address":"usarmy.redstone.asc.mbx.ppcig@mail.mil","note":"Email"}],"phone_numbers":[{"phone_number":"2568765161","phone_type":"voice","dsn":false,"note":"Appointments"},{"phone_number":"2568763916","phone_type":"voice","dsn":false},{"phone_number":"7463916","phone_type":"voice","dsn":true},{"phone_number":"2568422372","phone_type":"voice","dsn":false},{"phone_number":"7882372","phone_type":"voice","dsn":true},{"phone_number":"2568421051","phone_type":"voice","dsn":false,"note":"Counselor/PPM"},{"phone_number":"2568422370","phone_type":"voice","dsn":false,"note":"Counselor"},{"phone_number":"7881051","phone_type":"voice","dsn":true},{"phone_number":"7882370","phone_type":"voice","dsn":true},{"phone_number":"2568767631","phone_type":"voice","dsn":false},{"phone_number":"2569559079","phone_type":"voice","dsn":false},{"phone_number":"8438342028","phone_type":"voice","dsn":false,"note":"Cell"},{"phone_number":"6459079","phone_type":"voice","dsn":true},{"phone_number":"7467631","phone_type":"voice","dsn":true},{"phone_number":"2568763123","phone_type":"voice","dsn":false},{"phone_number":"7463123","phone_type":"voice","dsn":true},{"phone_number":"2568422368","phone_type":"fax","dsn":false},{"phone_number":"7882368","phone_type":"fax","dsn":true},{"phone_number":"2568764954","phone_type":"voice","dsn":false}],"urls":[],"services":[]},{"id":null,"name":"FORT RILEY","street_address":"ATTN: ASCW-LRC-RIL","extended_address":"215 CUSTER AVE","locality":"FORT RILEY","region":null,"region_code":"KS","postal_code":"66442","country_name":null,"country_code":"US","latitude":-96.783264,"longitude":39.061687,"email_addresses":[{"email_address":"laura.a.morris12.civ@mail.mil","note":"Customer Service"},{"email_address":"ford.a.smith.civ@mail.mil","note":"QC/QA"},{"email_address":"usarmy.riley.imcom.mbx.dol@mail.mil","note":"Shipment Support"}],"phone_numbers":[{"phone_number":"7852396601","phone_type":"voice","dsn":false,"note":"PPM"},{"phone_number":"7852396603","phone_type":"voice","dsn":false,"note":"Customer Service"},{"phone_number":"8566683","phone_type":"voice","dsn":true},{"phone_number":"7852390855","phone_type":"fax","dsn":false},{"phone_number":"7852396607","phone_type":"voice","dsn":false,"note":"Inbound"},{"phone_number":"7852396641","phone_type":"voice","dsn":false,"note":"Customer Service"},{"phone_number":"8560855","phone_type":"fax","dsn":true},{"phone_number":"7852396615","phone_type":"voice","dsn":false,"note":"NTS"},{"phone_number":"7852396616","phone_type":"voice","dsn":false,"note":"NTS"},{"phone_number":"7852396632","phone_type":"voice","dsn":false,"note":"Outbound"},{"phone_number":"7852392978","phone_type":"voice","dsn":false,"note":"QC/QA"},{"phone_number":"8562978","phone_type":"voice","dsn":true},{"phone_number":"7852396640","phone_type":"voice","dsn":false,"note":"Customer Service"},{"phone_number":"7852396644","phone_type":"voice","dsn":false,"note":"Supervisor"},{"phone_number":"7852401797","phone_type":"voice","dsn":false,"note":"Invoicing"},{"phone_number":"8563087","phone_type":"voice","dsn":true},{"phone_number":"8566733","phone_type":"voice","dsn":true},{"phone_number":"7852396733","phone_type":"voice","dsn":false,"note":"Transportation Officer"}],"urls":[],"services":[]},{"id":null,"name":"PPSO, NAVSUP FLC BAHRAIN","street_address":"PPSO NAVSUP FLC - BAH, PSC 851, BOX 0050","extended_address":"BLDG 36 (PSD BUILDING), JUFFAIR","locality":"MANAMA","region":null,"region_code":null,"postal_code":"09834","country_name":null,"country_code":"BH","latitude":26.0917954,"longitude":50.5480918,"email_addresses":[{"email_address":"M-BA-NSA-PERSONALPROPERTYBAHRAIN@me.navy.mil","note":"Customer Service"},{"email_address":"Neeraj.Mohandas.IN@me.navy.mil","note":"Email"},{"email_address":"Kashan.Butt.PK@me.navy.mil","note":"Inbound"},{"email_address":"Normita.Tipgos.PH@me.navy.mil","note":"Inbound"},{"email_address":"Qudseya.Juma.BH@me.navy.mil","note":"Outbound"},{"email_address":"Maritess.Nicolas.PH@me.navy.mil","note":"Outbound"},{"email_address":"Ranga.Alanki.IN@me.navy.mil","note":"Outbound"},{"email_address":"M-BA-NSA-PPSO-QA@me.navy.mil","note":"QA"},{"email_address":"M-BA-NSA-PPSO-INVOICES@me.navy.mil","note":"Shipment Support"},{"email_address":"Dominic.Near.PH@me.navy.mil","note":"Shipment Support"},{"email_address":"Zahra.Husain.BA@me.navy.mil","note":"Shipment Support"},{"email_address":"Gerald.bridgers@me.navy.mil","note":"TO"}],"phone_numbers":[{"phone_number":"17854265","phone_type":"voice","dsn":false},{"phone_number":"17856990","phone_type":"voice","dsn":false,"note":"Mr. Neeraj Mohandas"},{"phone_number":"4394265","phone_type":"voice","dsn":true},{"phone_number":"4396990","phone_type":"voice","dsn":true,"note":"Mr. Neeraj Mohandas"},{"phone_number":"01117854002","phone_type":"fax","dsn":false},{"phone_number":"4394002","phone_type":"fax","dsn":true},{"phone_number":"17854132","phone_type":"voice","dsn":false,"note":"Ms. Normita Tipgos"},{"phone_number":"17854265","phone_type":"voice","dsn":false,"note":"Mr. Kashan Butt"},{"phone_number":"4394132","phone_type":"voice","dsn":true,"note":"Ms. Normita Tipgos"},{"phone_number":"4394265","phone_type":"voice","dsn":true,"note":"Mr. Kashan Butt"},{"phone_number":"17854086","phone_type":"voice","dsn":false,"note":"Ms. Qudseya Juma"},{"phone_number":"17854233","phone_type":"voice","dsn":false,"note":"Mr. Rao Alanki"},{"phone_number":"17854249","phone_type":"voice","dsn":false,"note":"Ms. Maritess Nicolas"},{"phone_number":"4394086","phone_type":"voice","dsn":true,"note":"Ms. Qudseya Juma"},{"phone_number":"4394233","phone_type":"voice","dsn":true,"note":"Mr. Rao Alanki"},{"phone_number":"4394249","phone_type":"voice","dsn":true,"note":"Ms. Maritess Nicolas"},{"phone_number":"17856208","phone_type":"voice","dsn":false,"note":"Mr. Tomas Desouza"},{"phone_number":"4396208","phone_type":"voice","dsn":true,"note":"Mr. Tomas Desouza"},{"phone_number":"17854937","phone_type":"voice","dsn":false,"note":"Mr. Dominic Near"},{"phone_number":"17856282","phone_type":"voice","dsn":false,"note":"Ms. Zahra Husain"},{"phone_number":"4394937","phone_type":"voice","dsn":true,"note":"Mr. Dominic Near"},{"phone_number":"4396282","phone_type":"voice","dsn":true,"note":"Ms. Zahra Husain"},{"phone_number":"17859804","phone_type":"voice","dsn":false,"note":"Mr. Gerald Bridgers"},{"phone_number":"4399804","phone_type":"voice","dsn":true,"note":"Mr. Gerald Bridgers"}],"urls":[],"services":[]},{"id":null,"name":"CPPSO, CARLISLE BARRACKS, PA","street_address":"ATTN: ASCE-LCB,CPPSO CARLISLE BARRACKS","extended_address":"46 ASHBURN DRIVE, 2ND FLOOR","locality":"CARLISLE","region":null,"region_code":"PA","postal_code":"17013","country_name":null,"country_code":"US","latitude":-77.17641,"longitude":40.209507,"email_addresses":[{"email_address":"Usarmy.carlisle.imcom-atlantic.mbx.imne-clb-pwt@mail.mil","note":"Email"},{"email_address":"GWEN.M.LUKENS.CTR@MAIL.MIL","note":"Inbound"},{"email_address":"SUSAN.D.PEIFFER.CTR@MAIL.MIL","note":"Outbound"},{"email_address":"usarmy.carlisle.imcom-atlantic.mbx.imne-clb-pwt@mail.mil","note":"Shipment Support"}],"phone_numbers":[{"phone_number":"7172453357","phone_type":"fax","dsn":false},{"phone_number":"7172454382","phone_type":"voice","dsn":false,"note":"/4145"},{"phone_number":"2423357","phone_type":"fax","dsn":true,"note":"Incl Outbound"},{"phone_number":"2424382","phone_type":"voice","dsn":true,"note":"/4145"},{"phone_number":"7172454967","phone_type":"voice","dsn":false},{"phone_number":"2424967","phone_type":"voice","dsn":true},{"phone_number":"7172454000","phone_type":"voice","dsn":false,"note":"Booking"},{"phone_number":"7172454968","phone_type":"voice","dsn":false,"note":"Customer Service"},{"phone_number":"2424000","phone_type":"voice","dsn":true,"note":"Booking"},{"phone_number":"2424968","phone_type":"voice","dsn":true,"note":"Customer Service"},{"phone_number":"7172454037","phone_type":"voice","dsn":false,"note":"QC/QA"},{"phone_number":"2424781","phone_type":"voice","dsn":true},{"phone_number":"7172454968","phone_type":"voice","dsn":false,"note":"Counselor"},{"phone_number":"2424968","phone_type":"voice","dsn":true,"note":"Counselor"},{"phone_number":"7172453158","phone_type":"voice","dsn":false},{"phone_number":"2423158","phone_type":"voice","dsn":true}],"urls":[],"services":[]},{"id":null,"name":"OSAN AB, KOREA","street_address":"51 LRS / LGRDF","extended_address":"UNIT 2069","locality":"OSAN","region":null,"region_code":null,"postal_code":"96278","country_name":null,"country_code":"KR","latitude":39.899591,"longitude":-76.6009121,"email_addresses":[{"email_address":"51LRS.INBOUNDHHG@US.AF.MIL","note":"Inbound"},{"email_address":"51LRS.OUTBOUNDHHG@US.AF.MIL","note":"Outbound"}],"phone_numbers":[{"phone_number":"316614948","phone_type":"voice","dsn":false},{"phone_number":"7844948","phone_type":"voice","dsn":true},{"phone_number":"316616019","phone_type":"voice","dsn":false},{"phone_number":"7846019","phone_type":"voice","dsn":true},{"phone_number":"316614997","phone_type":"voice","dsn":false},{"phone_number":"7844997","phone_type":"voice","dsn":true},{"phone_number":"316615856","phone_type":"voice","dsn":false},{"phone_number":"7845856","phone_type":"voice","dsn":true}],"urls":[],"services":[]},{"id":null,"name":"FORT STEWART, GA","street_address":"ATTN: IMSH-LGT","extended_address":"55 PONY SOLDIER AVENUE, BLDG 253, ROOM 2003A","locality":"FORT STEWART","region":null,"region_code":"GA","postal_code":"31314","country_name":null,"country_code":"US","latitude":31.8938403,"longitude":-81.6418656,"email_addresses":[{"email_address":"usarmy.stewart.usag.list.ima-sero@mail.mil","note":"Email"}],"phone_numbers":[{"phone_number":"9127674208","phone_type":"voice","dsn":false},{"phone_number":"9127679911","phone_type":"fax","dsn":false},{"phone_number":"8704208","phone_type":"voice","dsn":true},{"phone_number":"8709911","phone_type":"fax","dsn":true},{"phone_number":"9127672163","phone_type":"voice","dsn":false},{"phone_number":"9127675920","phone_type":"fax","dsn":false},{"phone_number":"8702163","phone_type":"voice","dsn":true},{"phone_number":"8705920","phone_type":"fax","dsn":true},{"phone_number":"9127677971","phone_type":"voice","dsn":false},{"phone_number":"9127678154","phone_type":"voice","dsn":false},{"phone_number":"9127679099","phone_type":"fax","dsn":false},{"phone_number":"8707971","phone_type":"voice","dsn":true},{"phone_number":"8708154","phone_type":"voice","dsn":true},{"phone_number":"8709099","phone_type":"fax","dsn":true},{"phone_number":"9127674211","phone_type":"voice","dsn":false},{"phone_number":"8704211","phone_type":"voice","dsn":true}],"urls":[],"services":[]},{"id":null,"name":"CEKSF, OAKDALE PA.","street_address":"ATTN: IMNE-JPP-DIR","extended_address":"BLDG 5139 PEMBERTON/FORT DIX ROAD","locality":"FORT DIX","region":null,"region_code":"NJ","postal_code":"08640","country_name":null,"country_code":"US","latitude":40.0127803,"longitude":-74.6224755,"email_addresses":[{"email_address":"usarmy.jbmdl.406-afsb.mail.dol-jppso@mail.mil","note":"TO"}],"phone_numbers":[{"phone_number":"6095622338","phone_type":"fax","dsn":false},{"phone_number":"6095623248","phone_type":"fax","dsn":false},{"phone_number":"6095626376","phone_type":"voice","dsn":false},{"phone_number":"5626376","phone_type":"voice","dsn":true},{"phone_number":"6095622718","phone_type":"voice","dsn":false},{"phone_number":"5622718","phone_type":"voice","dsn":true},{"phone_number":"6095622107","phone_type":"voice","dsn":false},{"phone_number":"6095622681","phone_type":"voice","dsn":false},{"phone_number":"5622681","phone_type":"voice","dsn":true},{"phone_number":"6093548013","phone_type":"voice","dsn":false,"note":"W.VA INSP."},{"phone_number":"7323231313","phone_type":"voice","dsn":false,"note":"NAS LAKEHURST INSP."},{"phone_number":"6095622719","phone_type":"voice","dsn":false},{"phone_number":"5622719","phone_type":"voice","dsn":true,"note":"DOCUMENTATION"}],"urls":[],"services":[]}]